stop_id,object_id,route,address,longitude,latitude,zip_code
11953,193,95,92nd Street & Baltimore,-87.54862704,41.72818418,60617
2723,194,79,79th Street & Kilpatrick,-87.73722716,41.74911107,60652
1307,195,74,Fullerton & Kilpatrick,-87.74397363,41.92414302,60639
6696,196,157,Taylor & Throop,-87.65929365,41.86931425,60607
22,197,126,Jackson & Karlov,-87.72780787,41.8770066,60624
4767,198,92,Foster & Monticello,-87.71978,41.975526,60625
6057,199,"9,X9",Ashland & Cermak/Blue Island,-87.66617293,41.85248368,60608
1790,200,22,Clark & Albion,-87.67198065,42.00178504,60626
1847,201,"22,36",Clark & Burton,-87.63171899999999,41.909496999999995,60610
11474,202,84,Ridge & Broadway/Bryn Mawr,-87.66044699999999,41.983932,60660
1368,203,11,Lincoln & Berwyn,-87.692578,41.977713,60625
11877,204,93,California & Devon,-87.69972827,41.99764619,60659
3718,205,"8A,108",Halsted & 115th Street,-87.64227929,41.68519279,60643
5173,206,44,Racine & 60th Street,-87.65469488,41.78513736,60636
5182,207,44,Racine & 68th Street,-87.65434201,41.77057756,60636
7543,208,"34,119",Michigan & 110th Street,-87.62086382,41.6945046,60628
10235,209,54,Cicero & Iowa,-87.74591,41.896936,60651
4525,210,"62,62H",Archer & Major,-87.76464595,41.79544108,60638
5368,211,36,Broadway & Surf,-87.64431034,41.93492829,60657
9925,212,68,Northwest Hwy & Overhill,-87.81870908,42.00432736,60631
9936,213,68,Northwest Hwy & Niagara,-87.8008397,41.99339964,60631
16069,214,54B,Cicero & Pershing,-87.74369328,41.82179553,60804
2259,215,3,King Drive & 90th Street,-87.61445367,41.73096625,60619
14102,216,81,Jefferson Park Transit Center,-87.76185025,41.96984927,60630
7058,217,"N5,6,26,71",S. Shore Drive & 77th Street,-87.55339915,41.75689547,60649
5353,218,36,Broadway & Cullom,-87.654145,41.960081,60613
6488,219,24,Wentworth & Cermak,-87.63191809,41.85269836,60616
5710,220,80,Irving Park & Keystone (Blue Line),-87.72903944,41.95374569,60641
5314,221,"N5,6,15,67",67th Street & East End,-87.58383046,41.77341842,60649
4723,222,126,Jackson & Campbell,-87.68868467,41.87759071,60612
8099,223,47,47th Street & Albany,-87.70140483,41.80822289,60632
237,224,7,Congress & Karlov,-87.72774701,41.87439868,60624
458,225,20,Madison & Peoria,-87.649477,41.8818,60607
9688,226,"81W,91",Lawrence & Menard,-87.772711,41.967760999999996,60630
10122,227,67,71st Street & Spaulding,-87.7052,41.764399,60629
335,228,12,Roosevelt & May,-87.65499111,41.86711341,60608
9749,229,81W,Lawrence & Prospect,-87.83101847,41.96676517,60706
7997,230,43,43rd Street & Cottage Grove,-87.60657472,41.81688172,60653
9517,231,87,87th Street & Albany,-87.69960034,41.7353777,60652
7586,232,34,131st Street & Rhodes,-87.609601,41.657499,60827
4132,233,73,4600 W Armitage,-87.74183673,41.91705044,60639
14681,234,201,Central Street & Ridge,-87.68329,42.064170000000004,60201
9687,235,"81W,91",Lawrence & Major,-87.77006899999999,41.967801,60630
5379,236,36,State & Huron,-87.628241,41.895007,60654
12609,237,152,Addison & Melvina,-87.78122829,41.94575459,60634
9314,238,77,Belmont & Central Park,-87.71726747,41.93927553,60618
14523,239,66,Chicago & Hamlin,-87.72134984,41.89548807,60651
12574,240,152,Addison & California,-87.69785558,41.94674469,60618
1543,241,15,51st Street & Indiana,-87.62093295,41.80210347,60615
6846,242,21,Cermak & Archer,-87.63427349999999,41.85294079,60616
15316,243,35,35th Street & Michigan,-87.62369993,41.83109973,60616
367,244,12,Roosevelt & Keeler,-87.72995235,41.86618436,60624
17019,245,77,Belmont & Central,-87.76677666,41.93863989,60634
15337,246,65,Grand & Menard,-87.77091308,41.91975665,60639
6859,247,21,Cermak & Throop,-87.65859158,41.85250609,60608
7590,248,"34,108",127th Street & Michigan,-87.61978427,41.66354445,60628
11378,249,78,Montrose & Oakley,-87.686301,41.961397999999996,60618
786,250,65,Grand & Wood,-87.671862,41.890986700000006,60622
1541,251,15,51st Street & King Drive,-87.61682331,41.8021636,60615
13079,252,59,59th Street & Sacramento,-87.69833257,41.78638521,60629
622,253,66,Chicago & Ashland,-87.66707916,41.89615141,60642
17487,254,8,Halsted & Lincoln/Fullerton,-87.64867694,41.92571877,60614
17462,255,53,Pulaski & Addison,-87.72749217,41.94618759,60641
17354,256,79,79th Street & Colfax,-87.56119292,41.75174071,60649
17468,257,77,Belmont & Mason,-87.77471056,41.93840665,60634
17469,258,77,Belmont & Lamon,-87.74904333,41.93873824,60641
17470,259,77,Belmont & Kenosha,-87.73416153,41.93893101,60641
17472,260,"8,8A",Halsted & 79th Street Terminal,-87.64370184,41.74980413,60620
14283,261,"201,206",Central Street & Walnut,-87.7046645,42.06447731,60201
988,262,72,North Ave & Meade,-87.77747005,41.90929576,60639
4813,263,92,Foster & Washtenaw,-87.69635994,41.97591499,60625
12360,264,112,Monterey & Hermosa,-87.66671706,41.69082915,60643
12362,265,112,Monterey & Hale,-87.67043939,41.69199534,60643
13034,266,"N4,59",61st Street & Langley,-87.60837789,41.78407046,60637
12201,267,103,3000 W 103rd Street,-87.69627081,41.70635192,60655
7940,268,77,Belmont & Washtenaw,-87.69506341,41.93949232,60618
13065,269,59,59th Street & Laflin,-87.66176469,41.78684883,60636
12291,270,"34,106",103rd Street & Indiana,-87.61852819,41.70730326,60628
9306,271,77,Belmont & Paulina,-87.67100319,41.93972449,60657
9193,272,15,51st Street & Wentworth,-87.63019,41.8019,60609
7515,273,31,31st Street & Canal,-87.63766642,41.838224200000006,60616
15790,274,"24,87",87th Street & Morgan,-87.64883777,41.73610083,60620
14225,275,"134,135,136",Wacker & State,-87.62814441,41.88702684,60601
11413,276,78,Montrose & Menard,-87.77200468,41.96047939,60634
14621,277,53,Pulaski & Wellington,-87.72720652,41.93526488,60641
3068,278,52,Kedzie & 36th Street,-87.70465074,41.82817004,60632
5584,279,56,Milwaukee & Berteau,-87.75114444,41.95697792,60641
3685,280,8A,Halsted & 83rd Street,-87.643883,41.743515,60620
5163,281,44,Racine & 51st Street,-87.65510400000001,41.8015,60609
2408,282,29,State & 43rd Street,-87.62639712,41.81659818,60609
14612,283,94,California & Madison,-87.69637461,41.88089101,60612
2231,284,3,King Drive & 63rd Street,-87.61569366,41.77995847,60637
5024,285,"128,132,192",Clinton & Madison,-87.641267,41.881976,60661
5629,286,80,Irving Park & Lamon,-87.74994875,41.95330775,60641
10532,287,55,Garfield & Racine,-87.65446379999999,41.79375704,60621
396,288,20,Madison & Lockwood,-87.75778965,41.88025187,60644
15383,289,90,Harlem & Diversey,-87.80641009,41.93099446,60707
15539,290,91,Austin & Wellington,-87.77602671,41.93506074,60634
6186,291,9,Ashland & 57th Street,-87.66434247,41.79025299,60636
10916,292,"44,75",Racine & 76th Street,-87.65378542,41.75651946,60620
880,293,72,North Ave & Hamlin,-87.721763,41.90988,60647
26,294,126,Jackson & Central Park,-87.7154772,41.87714182,60624
5660,295,80,Irving Park & Damen/Lincoln,-87.6788797,41.95404952,60618
3385,296,63,63rd Street & Keeler,-87.727742,41.778549,60629
12445,297,119,119th Street & Loomis,-87.65658841,41.67754029,60643
15698,298,152,Addison & Narragansett,-87.78595115,41.94560324,60634
1881,299,"22,24,36,62,151",Dearborn & Monroe,-87.629285,41.880948,60603
5954,300,8,Halsted & Armitage,-87.64841955,41.91807745,60614
2752,301,79,79th Street & Wood,-87.66832726,41.75024126,60620
7661,302,35,35th Street & Damen,-87.675437,41.830338,60609
6688,303,157,Polk & Damen,-87.67656925,41.87142309,60612
2778,304,79,79th Street & Indiana,-87.61987420000001,41.75098439,60619
2889,305,111,111th Street & Michigan,-87.62122408,41.69253952,60628
389,306,20,Madison & Menard,-87.76992191,41.88008776,60644
15789,307,"24,87",87th Street & Morgan,-87.64808512,41.7358845,60620
1631,308,15,51st Street & King Drive,-87.61574132,41.80203876,60615
7022,309,"N5,6,26,71",S. Shore Drive & 79th Street,-87.54823243,41.75223404,60649
8171,310,47,47th Street & Wallace,-87.64081761,41.80887375,60609
10786,311,71,71st Street & King Drive,-87.61548,41.76563,60619
2890,312,111,111th Street & Indiana,-87.61840705,41.69257126,60628
1756,313,155,Morse & Sheridan,-87.66177918,42.00790263,60626
11161,314,82,Homan & Grand,-87.71154689,41.90027454,60651
2497,315,4,Cottage Grove & 60th Street,-87.60593411,41.78573679,60637
6262,316,9,Ashland & Webster,-87.66847102,41.92136043,60614
4982,317,156,LaSalle & Huron,-87.63257579,41.89484249,60654
6724,318,37,Sedgwick & North Avenue,-87.63851319999999,41.91096074,60610
9420,1,87,87th Street & Drexel,-87.60249853,41.736610299999995,60619
9421,2,87,87th Street & Dauphin/Ingleside,-87.601322,41.736645,60619
3369,3,165,65th Street & Long,-87.7566502,41.77441797,60638
3743,4,81,Lawrence & Lawndale,-87.72080234,41.96821766,60625
13014,5,59,61st Street & Ellis,-87.60126456,41.78404668,60637
332,6,12,900 W Roosevelt,-87.64943144,41.86721921,60608
11374,7,78,Montrose & Winchester,-87.67737373,41.96153108,60640
7115,8,28,Stony Island & Anthony,-87.58540157,41.74868352,60617
6995,9,71,Commercial & 102nd Street,-87.55218459999999,41.7099611,60617
10818,10,71,Yates & Exchange,-87.56642039,41.76566303,60649
9628,11,91,Austin & Fulton/Pleasant,-87.77475289,41.88567802,60644
4163,12,31,Ashland Orange Line Station,-87.6652554,41.83910322,60608
10823,13,71,71st Street & Merrill,-87.572452,41.766323,60649
14896,14,76,Diversey & Mildred,-87.6513145,41.9327459,60614
7519,15,31,31st Street & Halsted,-87.64612406,41.83810209,60608
6485,16,24,Wentworth & 26th Street,-87.631745,41.845315,60616
10607,17,55,Garfield & Damen,-87.67457834,41.79396924,60609
1262,18,74,Fullerton & Kostner,-87.73647819,41.92445662,60639
601,19,66,Chicago & State (Red Line),-87.62802244,41.89674104,60611
15769,20,115,115th Street & Halsted,-87.64256228,41.68515348,60643
508,21,20,Madison & Menard,-87.76966086,41.88026556,60644
15557,22,65,Grand & Hamlin,-87.72182109999999,41.90439661,60651
9335,23,77,Belmont & Menard,-87.77126819,41.93857548,60634
11379,24,78,Montrose & Western,-87.68850147,41.96138618,60618
12065,25,96,Lunt & Clark,-87.67418355,42.00903531,60626
15108,26,125,Ontario & State,-87.6283778,41.89334287,60654
10629,27,55,55th Street & Keeler,-87.72794915,41.79324074,60632
12267,28,"26,100",106th Street & Avenue O,-87.53999099,41.70281547,60617
12272,29,"26,100",106th Street & Muskegon,-87.554664,41.70284488,60617
14862,30,39,Pershing & Halsted,-87.64634449,41.82353989,60609
5086,31,"8,44",Halsted & 47th Street,-87.645433,41.809109,60609
9145,32,53,Pulaski & Foster,-87.72810981,41.97538338,60625
6446,33,24,Wentworth & 71st Street,-87.62969,41.765295,60621
9087,34,53,Pulaski & Harrison (Blue Line),-87.7253129,41.87337304,60624
6767,35,18,18th Street & Racine,-87.656531,41.857894,60608
11939,36,"N5,95",93rd Street & Jeffery,-87.57559134,41.72605615,60617
4925,37,"80,135,148",Irving Park & Clarendon,-87.64940981,41.95451091,60613
12453,38,119,119th Street & Halsted,-87.64214226,41.67774285,60628
5702,39,80,Irving Park & Kimball,-87.71279203,41.95396828,60618
11897,40,93,California & Foster,-87.69884183,41.97602576,60625
11409,41,78,Montrose & Long,-87.76215122,41.96063576,60641
11069,42,76,Diversey & Kedzie,-87.70730498,41.93211818,60647
9476,43,87,87th Street & Dobson,-87.598957,41.736782,60619
17166,44,20,Madison & Kostner,-87.73573853,41.88072053,60624
17200,45,155,Devon & Sacramento,-87.70469739,41.99753451,60659
14958,46,20,Madison & Laramie,-87.75533409999998,41.88046755,60644
10096,47,67,69th Street & Halsted,-87.64437737,41.76890717,60621
4756,48,92,Foster & Cicero,-87.74821962,41.9752625,60630
9186,49,15,51st Street & State,-87.6261143,41.80187226,60609
15480,50,77,Belmont & Menard,-87.77112736,41.93845382,60634
6690,51,157,Polk & Wood,-87.671593,41.871466999999996,60612
11028,52,76,Diversey Brown Line Station,-87.65362119,41.93257845,60614
2731,53,79,79th Street & Lawndale,-87.71461124,41.74951728,60652
315,54,"12,18,N62",Roosevelt & Clark,-87.63060611,41.86723861,60616
8160,55,"47,48",47th Street & Damen,-87.67483486,41.80844666,60609
14517,56,66,Chicago & Homan,-87.71104249,41.89543299,60651
10812,57,71,71st Street & Yates,-87.566643,41.7658,60649
1721,58,155,Devon & Kedzie,-87.70904957,41.9973267,60659
12499,59,152,Addison & Laramie,-87.7570356,41.94590359,60641
2033,60,70,Division & Wells,-87.63465985,41.90378504,60610
21,61,126,Jackson & Keeler,-87.7302,41.876963,60624
14506,62,"24,87",87th Street & Halsted,-87.64313113,41.73597648,60620
17131,63,70,Division & Wood,-87.67209195,41.903194899999995,60622
12055,64,96,Lunt & Clark,-87.67409148,42.008931,60626
12969,65,59,59th Street & California,-87.69374133,41.78633562,60629
7220,66,"N5,30,67",69th Street & King Drive,-87.61548253,41.76928055,60637
189,67,7,Harrison & Oakley,-87.683913,41.873882,60612
10285,68,54,Cicero & Lexington (Blue Line),-87.744822,41.871076,60644
14943,69,30,Ewing & 106th Street,-87.53519336,41.70298015,60617
8959,70,50,Damen & Argyle,-87.67922,41.972305,60625
17192,71,86,Narragansett & Grand,-87.78532602,41.92275816,60639
17213,72,53,Pulaski & 14th Street,-87.72497574,41.862688899999995,60623
17344,73,49,Western & Hirsch,-87.68699223,41.90681176,60622
8703,74,48,Damen & 87th Street Terminal,-87.67298324,41.73623458,60620
5019,75,"10,125",Chestnut & Mies Van Der Rohe,-87.62267307,41.89846025,60611
15121,76,92,Foster & Jewel Prking Ent,-87.72934584,41.97560011,60630
5788,77,8,Halsted & Erie,-87.64774399999999,41.893451,60642
9943,78,68,Northwest Hwy & Nagle,-87.78782075,41.98593988,60631
8630,79,169,79th Street & Western,-87.68306700000001,41.750001,60652
16061,80,11,Lincoln & Cornelia,-87.67234956,41.94483597,60657
6511,81,24,4200 S Wentworth,-87.631253,41.81805,60609
6496,82,24,Wentworth & 27th Street,-87.63194196,41.84413074,60616
6521,83,24,Wells & 52nd Street,-87.632012,41.800185,60609
7473,84,31,31st Street & Morgan,-87.65117586,41.83791346,60608
8093,85,"47,94",47th Street & Rockwell,-87.68921338,41.80842082,60632
9329,86,77,Belmont & Laramie,-87.75649627,41.93877162,60641
6823,87,18,18th Street & Western,-87.68568274,41.85732922,60608
8782,88,48,Damen & 63rd Street,-87.67399408,41.77943582,60636
1818,89,22,Clark & Irving Park,-87.66243286,41.95449734,60613
9036,90,53,Pulaski & Jackson,-87.72564233,41.87717005,60624
5855,91,8,Halsted & 71st Street,-87.644472,41.765332,60621
3834,92,57,Laramie & Augusta,-87.755751,41.898664000000004,60651
4687,93,"62H,63W",63rd Street & 74th Avenue,-87.80566527,41.77726123,60501
12377,94,112,111th Street & Spaulding,-87.70325722,41.69159059,60655
10126,95,67,71st Street & Lawndale,-87.71490599,41.76424748,60629
1758,96,"36,151,155",Devon & Lakewood,-87.66292168,41.99823889,60626
10879,97,75,75th Street & Eberhart,-87.61255179999999,41.75851229,60619
9302,98,77,Belmont & Lakewood,-87.66123383,41.93987483,60657
9323,99,77,Belmont & Kilbourn,-87.73939003,41.93897901,60641
10892,100,75,74th Street & Parnell,-87.6384219,41.75989204,60621
3285,101,63W,63rd Street & Leamington,-87.75083652,41.77831585,60638
17090,102,71,71st Street & Eberhart,-87.61297940000001,41.76582986,60637
12181,103,103,103rd Street & Malta,-87.65698072,41.70683019,60643
12591,104,152,Addison & Kostner,-87.73718559999999,41.9463062,60641
9354,105,77,Belmont & Oriole (76th Avenue),-87.81638679,41.93801371,60634
12193,106,103,103rd Street & Oakley,-87.67988454,41.70643624,60643
6826,107,18,16th Street & Washtenaw,-87.69317542,41.85930576,60608
148,108,126,Jackson & Lotus,-87.76154549,41.87661212,60644
12061,109,96,Lunt & Glenwood,-87.66612529,42.00917098,60626
10128,110,67,71st Street & Springfield,-87.719663,41.764157,60629
6836,111,18,16th Street & Springfield,-87.72229925,41.85896155,60623
497,112,20,Madison & Lamon,-87.74751850000001,41.88057059,60644
15819,113,119,119th Street & Western,-87.68030669,41.6771407,60406
12182,114,103,103rd Street & Charles,-87.65854774,41.70680429,60643
11898,115,93,California & Berwyn,-87.698904,41.977569,60625
1522,116,"6,28",5200 S S Hyde Park,-87.58442446,41.80084655,60615
5068,117,44,Racine & 61st Street,-87.65451257,41.78316667,60636
14368,118,"93,206",Dodge & Lee,-87.69908952,42.03557743,60202
9710,119,86,Nagle & Haft,-87.78743096,41.99514985,60646
9074,120,53,Pulaski Pink Line Station,-87.7246994,41.85367978,60623
4435,121,62,Archer & 34th Street,-87.67391666,41.83256542,60608
6101,122,9,Ashland & 66th Street,-87.66420062,41.77411854,60636
10460,123,54A,Skokie Blvd & Madison,-87.747551,42.031601,60077
2868,124,111,Vincennes & Montvale,-87.66561518,41.6882486,60643
3091,125,"52,52A",Kedzie & 56th Street,-87.70358440000001,41.79178516,60629
2940,126,115,115th Street & Aberdeen,-87.64950931,41.68493495,60643
8147,127,47,47th Street & Albany,-87.70156659,41.80810095,60632
9287,128,77,Belmont & Seminary,-87.65665745,41.93979981,60657
9239,129,77,Belmont & New England,-87.79822,41.93806,60634
11935,130,"N5,95,100",1500 E 95th Street,-87.587952,41.722204,60628
4033,131,73,4600 W Armitage,-87.74179864,41.91692728,60639
4043,132,73,Armitage & Lawndale,-87.71932438,41.91719359,60647
8157,133,"47,48",47th Street & Oakley,-87.68210615,41.80837501,60609
9722,134,81W,Lawrence & Octavia,-87.80960300000001,41.967098,60706
7801,135,39,Pershing & Francisco,-87.69720914,41.82267977,60632
14526,136,71,75th Street & Exchange,-87.55956205,41.75928998,60649
31,137,126,Jackson & Albany,-87.703323,41.877288,60612
9263,138,77,Belmont & Knox,-87.74329322,41.93880549,60641
11027,139,76,Diversey & Seminary,-87.65646692,41.9325708,60614
7256,140,"26,30",91st Street & Brandon,-87.54698928,41.7300318,60617
9957,141,52A,115th Street & Lawndale,-87.71292126,41.68401992,60803
9614,142,91,Fillmore & Austin,-87.77406269,41.86722455,60644
8043,143,43,Root & Princeton,-87.633645,41.818996000000006,60609
12680,144,"201,205",Church & Maple,-87.68505817,42.048401299999995,60201
2881,145,111,111th Street & Union,-87.64005435,41.69232493,60628
15423,146,201,4700 W Old Orchard Rd,-87.74472966,42.06231542,60076
185,147,7,Harrison & Washtenaw,-87.693779,41.873754999999996,60612
10938,148,75,75th Street & Langley,-87.60793922,41.75847934,60619
6753,149,18,16th Street & Rockwell,-87.6907968,41.859252399999995,60608
12472,150,152,Addison & Overhill,-87.81970600000001,41.945169,60634
9442,151,87,87th Street & Escanaba,-87.55430104,41.73728795,60617
11447,152,84,Peterson & Lincoln,-87.70749485,41.99028092,60659
1732,153,155,Devon & Hoyne,-87.68267389,41.99774722,60659
9968,154,52A,Kedzie & 109th Street,-87.700872,41.695129,60655
11915,155,93,California & Lunt,-87.69969499999999,42.008364,60645
2169,156,3,King Drive & 33rd Street,-87.61693354,41.8349499,60616
9970,157,52A,Kedzie & 107th Street,-87.70100500000001,41.698785,60655
13126,158,206,Oakton & Asbury,-87.69019555,42.02682815,60202
11495,159,84,Peterson & Jersey,-87.71078294,41.99047014,60659
4551,160,55N,55th Street & Meade,-87.77438403,41.79255037,60638
9510,161,87,87th Street & Longwood,-87.67587426,41.73572283,60620
3294,162,63W,63rd Street & Mayfield,-87.7688993,41.77797235,60638
234,163,"7,126",Congress & Hamlin/Independence,-87.71961417,41.87450949,60624
9523,164,87,87th Street & Hamlin,-87.71645347,41.73503601,60652
947,165,72,North Ave & Leavitt,-87.6822277,41.91049688,60647
2630,166,79,79th Street & Cottage Grove,-87.60505167,41.7513569,60619
10830,167,71,71st Street & Stony Island,-87.58570300000001,41.766197,60649
142,168,126,Jackson & Lavergne,-87.74934028,41.87680393,60644
5736,169,80,Irving Park & Neenah,-87.79076286,41.95291534,60634
4203,170,94,California & Harrison,-87.69600213,41.87369282,60612
15303,171,94,California & Harrison,-87.69618096,41.87358674,60612
4197,172,94,California & Roosevelt,-87.69578135,41.86634978,60608
3323,173,165,65th Street & Lavergne,-87.74683542,41.7747378,60638
13085,174,59,59th Street & Central Park,-87.71271871,41.78616726,60629
1536,175,15,51st Street & Evans,-87.60785102,41.80228814,60615
5683,176,80,Irving Park & Hermitage,-87.67208942,41.95435276,60613
7262,177,"26,30",Ewing & 94th Street,-87.53818993,41.72479802,60617
7261,178,"26,30",9320 S Ewing,-87.54005052,41.7266446,60617
5064,179,44,Racine & 64th Street,-87.654353,41.777731,60636
7583,180,34,Langley & 132nd Street,-87.60506922,41.65571789,60827
6493,181,24,Wentworth & 23rd Street,-87.63202199999999,41.851087,60616
16195,182,21,Cermak & Loomis,-87.66138582,41.85249355,60608
6944,183,21,Cermak & Morgan,-87.65149100000001,41.852502,60608
12527,184,152,Addison & Western,-87.68847434,41.9466599,60618
14515,185,66,Chicago & Hamlin,-87.72091557,41.8953398,60651
12400,186,112,111th Street & Campbell,-87.683758,41.691708,60655
413,187,20,Madison & St. Louis,-87.71381964,41.88081388,60624
4032,188,73,Armitage & Kilpatrick,-87.743792,41.916901,60639
5597,189,80,Acacia Park Cemetery,-87.82371561,41.95228789,60634
14702,190,205,Golf Road & Hamlin,-87.72279171,42.05521183,60203
403,191,20,Madison & Kenton,-87.740705,41.880475,60644
2893,192,"4,111A,115",111th Street & Vernon,-87.61226293,41.69267046,60628
9000,694,53,Pulaski & Milwaukee,-87.72733000000001,41.941410999999995,60641
9577,695,91,Austin & Diversey,-87.776032,41.931212,60639
8260,696,49,Western & 31st Street,-87.68529000000001,41.83911,60608
9270,697,77,Belmont & Milwaukee,-87.72398399,41.93906153,60618
7252,698,"30,9E",92nd Street & Commercial,-87.55133963,41.72818417,60617
12986,699,59,59th Street & Morgan,-87.6499566,41.78689578,60621
14959,700,20,Madison & Cicero,-87.74496781,41.88039237,60644
9960,701,52A,115th Street & Homan,-87.70552666,41.68412464,60655
11530,702,85,Central & Irving Park,-87.76709588,41.95332086,60634
17079,703,"3,21",Cermak & Michigan,-87.62354147,41.85274871,60616
1336,704,74,Fullerton & Damen,-87.67801932,41.92494051,60647
64,705,126,Jackson & Halsted,-87.64696658,41.8778898,60661
4581,706,"55A,55N",55th Street & Menard,-87.767291,41.792578000000006,60638
15377,707,"12,18,N62",Roosevelt & Clark,-87.63083778,41.86748977,60605
99,708,126,Van Buren & Ogden,-87.67187647,41.87632903,60612
9191,709,15,51st Street & State,-87.62569877,41.80201611,60615
590,710,"2,29,65,66",Grand & Fairbanks/Columbus,-87.620009,41.891861999999996,60611
10083,711,"N5,67",67th Street & St. Lawrence,-87.61039285,41.77311598,60637
6632,712,157,Taylor & Loomis,-87.66149318,41.86939688,60607
747,713,65,Illinois & Clark,-87.631279,41.890758,60654
11316,714,78,Montrose & Central,-87.76736801,41.96041525,60634
4742,715,53A,Pulaski & 107th Street,-87.72067,41.698652,60453
2827,716,"4,115",Cottage Grove & 101st Street,-87.60580873,41.71096377,60628
9905,717,68,Northwest Hwy & Oketo,-87.81160017,41.99992898,60631
5833,718,8,Halsted & 52nd Street,-87.64539338,41.79983714,60609
5842,719,8,Halsted & 60th Street,-87.64501719,41.78530231,60621
11192,720,82,Central Park & 18th Street,-87.71522,41.857221,60623
1703,721,49B,Western & Arthur,-87.689999,41.999618,60645
3147,722,52,Kedzie & 15th Street,-87.705443,41.861232,60623
11259,723,82,Kimball & Dickens,-87.711854,41.919084000000005,60647
11759,724,86,Narragansett & Waveland,-87.786242,41.947403,60634
8916,725,50,Damen & Hubbard,-87.676785,41.889635999999996,60622
11607,726,85,Central & Schubert,-87.766099,41.929361,60639
3101,727,"52,52A",Kedzie & 62nd Street,-87.70312583,41.7807125,60629
3377,728,"54B,165",Cicero & 64th Street,-87.74207027,41.77643353,60638
10393,729,54B,Cicero & 46th Street,-87.74301804,41.80936749,60632
5318,730,"6,15,28",Stony Island & 64th Street,-87.58633138,41.77876403,60637
9118,731,53,Pulaski & Altgeld,-87.72672262,41.92623003,60639
10388,732,54B,Cicero & 65th Street,-87.74199316,41.77469136,60638
4218,733,94,Sacramento & Ohio,-87.70190198,41.89180315,60612
7704,734,62H,Harlem & 61st Street,-87.800915,41.780856,60638
6725,735,37,Sedgwick & Eugenie,-87.63856635,41.9127576,60614
7350,736,"30,100",Ewing & 110th Street,-87.53516429999999,41.69536221,60617
2115,737,3,King Drive & 85th Street,-87.61447162,41.74020933,60619
8932,738,50,Damen & Cortland,-87.67749927,41.91587564,60622
3552,739,97,8200 N Niles Center,-87.75331607,42.02977215,60077
9144,740,53,5061 N Pulaski,-87.72802,41.973521999999996,60630
9146,741,53,5300 N Pulaski,-87.72819541,41.97757051,60630
16068,742,54B,Cicero & Pershing,-87.74336636,41.82232724,60804
9099,743,53,Pulaski & Erie,-87.72590416,41.89273541,60624
11731,744,86,Ridgeland & Iowa,-87.784802,41.896298,60302
12912,745,53A,Pulaski & 82nd Street,-87.72153645,41.74395743,60652
9660,746,91,Austin & Cornelia,-87.776348,41.943845,60634
2325,747,29,State & 40th Street,-87.62629,41.821713,60609
11825,748,90,Harlem & Summerdale,-87.80689259,41.97779537,60656
2114,749,3,King Drive & 86th Street,-87.61440562,41.73836733,60619
10328,750,54,Cicero & Cornelia,-87.74688435,41.94461771,60641
15489,751,201,Chicago & Church,-87.67871499,42.04782831,60201
9668,752,91,Austin & Cullom,-87.776883,41.95843,60634
11633,753,"85,85A",Central & Catalpa,-87.768305,41.981033000000004,60630
9065,754,53,Pulaski & 30th Street,-87.724319,41.838635,60623
14417,755,205,Grant & Grey,-87.70211621,42.05908662,60201
9714,756,81W,Lawrence & Courtland,-87.83147139,41.96657549,60706
10167,757,67,69th Street & Peoria,-87.64704073,41.76874902,60621
3367,758,165,65th Street & Central,-87.76168062,41.77429632,60638
11150,759,82,Kimball & Palmer,-87.712058,41.92109,60647
11475,760,84,Ridge & Wayne,-87.66312404,41.98557516,60660
6205,761,"9,X9",Ashland & Pershing,-87.66526481,41.82342621,60609
4385,762,"62,62H",Archer & Cicero,-87.74333649,41.79873174,60638
5159,763,44,Racine & 47th Street,-87.65533046,41.80854092,60609
5338,764,36,Broadway & Bryn Mawr/Ridge,-87.66018589,41.98386961,60660
5367,765,36,Broadway & Wellington,-87.644362,41.936578999999995,60657
8629,766,169,69th Street & State (Red Line),-87.62527051,41.76910793,60621
129,767,126,Jackson & Hamlin,-87.72104802,41.8772105,60624
12599,768,152,Addison & Laramie,-87.75675319,41.946016799999995,60641
12581,769,152,Addison & St. Louis,-87.71506138,41.9465937,60618
5112,770,44,Canal & 26th Street,-87.6382457,41.84560309,60616
76,771,"3,4,6,J14,26,143",Michigan & Jackson,-87.624193,41.878135,60604
10323,772,54,Cicero & Wellington,-87.74659708,41.93510674,60641
14854,773,94,California & 63rd Street,-87.69332656,41.77927614,60629
15456,774,9,Ashland & 81st Street,-87.6632166,41.74692475,60620
8317,775,"49,67,94,X49",Western & 69th Street,-87.68320658,41.76822045,60636
4169,776,94,California & 42nd Street,-87.69434509,41.81730928,60632
5075,777,44,Racine & Garfield,-87.65479408,41.79446756,60609
11629,778,85,Central & Lawrence,-87.76738701,41.96768625,60630
2491,779,4,Cottage Grove & Marquette Rd,-87.60569199,41.77487272,60637
10295,780,54,Cicero & Maypole,-87.745341,41.884361,60644
15170,781,7,Harrison & Central Park,-87.71555645,41.87347437,60624
744,782,65,Grand & Franklin,-87.63563348,41.89150738,60654
5667,783,"9,80",Irving Park & Southport,-87.66434190000001,41.9542736,60613
9426,784,87,87th Street & Dorchester,-87.59064173,41.73680448,60619
4762,785,92,Foster & Tripp,-87.73447122,41.97539629,60630
3756,786,81,Lawrence & Western,-87.68914186,41.96853652,60625
11338,787,78,Montrose & Kimball,-87.713245,41.961071000000004,60618
15260,788,59,59th Street & Sacramento,-87.69817227,41.78627527,60629
16103,789,12,Roosevelt & Loomis,-87.66133342,41.86681081,60608
12988,790,59,59th Street & Halsted,-87.64510503,41.78695303,60621
15196,791,"55A,55N",55th Street & Laramie,-87.75213895,41.79282341,60638
1292,792,74,Fullerton & Melvina,-87.78061594,41.923691999999996,60639
7733,793,39,Pershing & King Drive,-87.61735023,41.82375464,60653
12459,794,119,119th Street & Wentworth,-87.62756892,41.67791639,60628
902,795,72,North Ave & Ashland,-87.66787773,41.91055657,60622
3488,796,95,95th Street & Leavitt,-87.67735639,41.72088921,60643
9675,797,"81W,91",Lawrence & Austin/Mason,-87.77692805,41.96758666,60630
11314,798,78,Montrose & Menard,-87.77225200000001,41.960353999999995,60634
15413,799,35,35th Street & Wallace,-87.64096854,41.83075094,60609
12402,800,112,111th Street & Bell,-87.67768896,41.69174656,60643
12073,801,96,Lunt & Western,-87.68995666,42.00865641,60645
6361,802,"7,60,126,157",Clinton & Jackson,-87.64115100000001,41.87814,60661
14203,803,12,Ogden & Taylor,-87.68084431,41.86893197,60612
14806,804,92,Foster & Kostner,-87.73821147,41.97548307,60630
12489,805,152,Addison & Melvina,-87.781482,41.94566,60634
6189,806,"9,X9",Ashland & Garfield,-87.66443238,41.79414887,60609
11279,807,82,Kimball & Montrose,-87.713061,41.961042,60618
14578,808,"49,X49",Western & 59th Street,-87.68396369,41.78628904,60636
12292,809,106,103rd Street & Michigan,-87.62004118,41.70728631,60628
9350,810,77,Belmont & Harlem,-87.8064702,41.93806847,60634
4129,811,73,Armitage & Kostner,-87.73617220000001,41.91710939,60639
124,812,126,Jackson & Kedzie,-87.70627812,41.87739519,60624
2624,813,79,79th Street & Kenwood,-87.59174129,41.75148299,60619
1263,814,74,Fullerton & Kilbourn,-87.73891406,41.92441912,60639
15830,815,66,Chicago & Menard,-87.77060918,41.89484992,60651
4542,816,"55A,55N",55th Street & Cicero,-87.74265033,41.79318729,60638
15159,817,103,103rd Street & Wentworth,-87.62867585,41.70716371,60628
4110,818,73,Armitage & California,-87.69703407,41.91755296,60647
14981,819,12,Roosevelt & California,-87.69620946,41.86660599,60612
7996,820,43,43rd Street & Drexel,-87.6045865,41.81689898,60653
5320,319,"6,15,28",Stony Island & 63rd Street,-87.58635116,41.78047225,60637
8707,320,48,Damen & 83rd Street,-87.672839,41.742807,60620
14978,321,"8A,108",Halsted & 107th Street,-87.64274308,41.69935242,60628
6076,322,"9,X9",Ashland & 43rd Street,-87.66523268,41.81592123,60609
1480,323,11,Lincoln & Sunnyside,-87.68481646,41.96308112,60625
6009,324,9,Ashland & Wrightwood,-87.66840601,41.92884949,60614
2233,325,3,King Drive & 65th Street,-87.61561999999999,41.776388,60637
9908,326,68,Northwest Hwy & Oliphant,-87.81601158,42.00273158,60631
4422,327,62,Archer & Sacramento,-87.6994427,41.81691420000001,60632
4636,328,37,Wells & Jackson,-87.63379300000001,41.878194,60606
7094,329,71,Torrence & 106th Street,-87.55970672,41.70284711,60617
17663,330,24,83rd Street & Vincennes,-87.63567039,41.74398743,60620
17664,331,24,83rd Street & Holland,-87.63233926,41.74347769,60620
17665,332,24,8400 S Holland,-87.63211859,41.74144204,60620
17666,333,24,8500 S Holland,-87.6320755,41.73909856,60620
17667,334,24,8501 S Holland,-87.63183008,41.73934022,60620
17668,335,24,8401 S Holland,-87.63190363,41.74121623,60620
17669,336,24,83rd Street & Holland,-87.63251207,41.74360292,60620
8778,337,48,Damen & 59th Street,-87.67420183,41.786725,60636
10495,338,55,55th Street & Kilpatrick,-87.73991156,41.79294409,60629
10931,339,75,75th Street & Lafayette,-87.626593,41.758046,60620
1636,340,15,51st Street & Cottage Grove,-87.60657938,41.80219055,60615
9408,341,87,87th Red Line Station,-87.62482928,41.73616129999999,60620
8062,342,43,43rd Street & Drexel,-87.60385917,41.81677624,60653
9638,343,91,Austin & Division,-87.7752696,41.90189912,60651
11748,344,86,Narragansett & Wrightwood,-87.785489,41.9273,60639
11476,345,84,Ridge & Glenwood,-87.664927,41.986659,60660
15445,346,11,Kedzie & Touhy,-87.70914201,42.01197222,60076
14030,347,30,Avenue O & 134th Street,-87.53997325,41.65189447,60633
14528,348,156,LaSalle & Kinzie,-87.63236867,41.88937563,60654
17183,349,9,Ashland & Polk,-87.66667512,41.87147509,60607
10226,350,54,Cicero & Grand,-87.74613314,41.9141716,60639
1689,351,49B,Western & Jarvis,-87.69013526,42.01558983,60645
6016,352,"9,X9",Ashland & Cortland,-87.66793248,41.91630396,60642
84,353,37,Van Buren & Canal,-87.63938046,41.87682748,60606
5738,354,80,Irving Park & Oak Park,-87.79609920000001,41.95280984,60634
1282,355,74,Fullerton & Narragansett,-87.7852845,41.92378886,60639
15676,356,70,Division & Wells,-87.63492031,41.90391691,60610
479,357,20,Madison & Sacramento,-87.701062,41.881088,60612
864,358,72,North Ave & Long,-87.76102900000001,41.909379,60639
14813,359,78,Montrose & California,-87.6980109,41.96119475,60618
3729,360,81,Lawrence & Leclaire,-87.75514647,41.96783793,60630
12392,361,112,111th Street & Kedzie,-87.70096611,41.69149952,60655
2939,362,115,115th Street & Racine,-87.65196366,41.68489116,60643
15206,363,66,Chicago & Paulina,-87.66940692,41.89595185,60622
14812,364,74,Fullerton & Central,-87.7657416,41.9238739,60639
1296,365,74,Fullerton & Menard,-87.77095686,41.9238215,60639
14810,366,65,Grand & Narragansett,-87.78504053,41.922446,60639
2728,367,"79,169",79th Street & Pulaski,-87.72149967,41.74939638,60652
11318,368,78,Montrose & Long,-87.762416,41.96048,60641
10549,369,55,Garfield & King Drive,-87.6161524,41.79441235,60637
15043,370,66,Chicago & Rockwell,-87.69155692,41.89561683,60622
15001,371,96,Devon & Kedzie Terminal,-87.70952663,41.99786612,60645
17324,372,53,Pulaski & Bryn Mawr,-87.72852807,41.98266396,60630
5488,373,56,Milwaukee & Ashland (Blue Line),-87.66767923,41.90402947,60622
963,374,72,North Ave & Lawndale,-87.71885413,41.91009453,60647
926,375,"N9,72",North Ave & Wells,-87.63452737,41.91118658,60614
15306,376,21,Cermak & Leavitt,-87.68115347,41.85215974,60608
11084,377,76,Diversey & Kilpatrick,-87.74401579,41.93162958,60639
8801,378,48,Damen & 83rd Street,-87.67304986,41.74297238,60620
15041,379,56,Milwaukee & Fullerton,-87.70030322,41.92460752,60647
6082,380,9,Ashland & 49th Street,-87.66499628,41.80504056,60609
4521,381,"62,62H",Archer & Lockwood,-87.75497022,41.79695658,60638
1405,382,73,Armitage & Clark,-87.63626476,41.91836831,60614
9284,383,77,Belmont & Southport,-87.6639978,41.93969678,60657
9265,384,77,Belmont & Kostner,-87.73714468,41.93889163,60641
9428,385,87,87th Street & Stony Island (Nearside),-87.58580436,41.73683919,60617
7341,386,30,Avenue O & 116th Street,-87.53999666,41.68470941,60617
8935,387,50,Damen & Webster,-87.67770300000001,41.9213,60647
6478,388,"24,39",LaSalle & Pershing,-87.62956820000001,41.82395209,60609
8169,389,47,47th Street & Halsted,-87.64569747,41.80879207,60609
3266,390,63,63rd Street & St. Louis,-87.710133,41.778892,60629
11393,391,78,Montrose & Hamlin,-87.72282573,41.96107385,60618
12586,392,152,Addison & Pulaski,-87.72726222,41.94643977,60641
927,393,"N9,72",North Ave & Sedgwick (Brown Line),-87.63841909,41.91122311,60614
3228,394,63,63rd Street & Wentworth,-87.62998054,41.78005202,60621
9454,395,87,87th Street & Commercial,-87.55172575,41.73744325,60617
206,396,"7,60,755",Harrison & Halsted,-87.64775,41.874441,60607
5707,397,80,Irving Park & Hamlin,-87.72255106,41.95381454,60618
4094,398,73,Cortland & Southport,-87.66289,41.917095,60614
14828,399,78,Montrose & Ashland,-87.66958774,41.96165552,60640
15183,400,35,36th Street & Kedzie,-87.70436515,41.82813953,60632
473,401,20,Madison & Western,-87.686193,41.881235,60612
4115,402,73,Armitage & Kedzie,-87.70678834,41.91746599,60647
12167,403,103,103rd Street & State,-87.62338394,41.7072341,60628
12186,404,103,103rd Street & Wood,-87.66701618,41.70665751,60643
11827,405,90,Higgins & Harlem,-87.8074118,41.98129468,60656
2376,406,"29,62",State & Roosevelt,-87.62753585,41.86759377,60605
1597,407,"1,3,4",Michigan & Cullerton,-87.62399267,41.85534056,60616
6111,408,9,Ashland & 76th Street,-87.66370353,41.75592748,60620
1479,409,11,Lincoln & Montrose/Leavitt,-87.68366312,41.96128322,60618
17338,410,52,Kedzie & Archer,-87.70429526,41.81382133,60632
2382,411,"29,62",State & 18th Street,-87.6273364,41.85753705,60616
15039,412,86,Narragansett & Diversey,-87.78577606,41.93083059,60707
5181,413,44,Racine & Marquette Rd,-87.65439757,41.77243564,60636
14618,414,9,Ashland & Wellington,-87.66862968,41.93595791,60657
8614,415,36,Broadway & Hollywood,-87.660241,41.985508,60660
8758,416,50,Damen & Archer,-87.67539647,41.83191788,60608
14509,417,"2,6,10,134,135,136,146,148",Wacker (Upper) & Wabash,-87.62648695,41.88754404,60601
2194,418,3,King Drive & 26th Street,-87.61776811,41.84545476,60616
9472,419,87,87th Street & Dorchester,-87.590098,41.736912,60619
6450,420,24,Wentworth & Marquette Rd,-87.62986882,41.77258351,60621
16194,421,36,Broadway & Wilson,-87.65747542,41.96559124,60640
6547,422,24,Vincennes & 75th Street/Yale,-87.63147531,41.75821301,60621
17363,423,3,King Drive & 79th Street,-87.61503894,41.75092081,60619
17342,424,77,Belmont & Western/Clybourn,-87.68763836,41.93938755,60618
14451,425,36,Broadway & Addison,-87.64715229,41.94701409,60657
8297,426,"49,X49",Western & 69th Street,-87.68349472,41.76845216,60636
17405,427,152,Addison & Central,-87.76652536,41.94581596,60634
6524,428,"24,55",Garfield Red Line Station,-87.63104442,41.79411546,60621
5023,429,"125,130",Clinton & Washington,-87.641313,41.883314,60661
6675,430,18,Ogden & Sacramento,-87.70113115,41.85921125,60623
6195,431,9,Ashland & 49th Street,-87.66474944,41.80507134,60609
703,432,65,Grand & Hamlin,-87.72159442,41.90418821,60651
305,433,12,Roosevelt & Blue Island,-87.65360529,41.86693795,60608
5662,434,80,Irving Park Brown Line Station,-87.67486629,41.95410273,60613
3448,435,63,63rd Street & Woodlawn,-87.59628914,41.78046005,60637
4750,436,92,Foster & Long,-87.762865,41.975095,60630
6317,437,60,26th Street & Albany,-87.702674,41.844495,60623
11327,438,78,Montrose & Kilbourn,-87.74118035,41.96071442,60641
5620,439,80,Irving Park & Menard,-87.77200748,41.95301847,60634
14976,440,12,Roosevelt & Ashland,-87.66587889,41.86673353,60608
5670,441,80,Irving Park & Sheridan,-87.65468804,41.95441855,60613
9291,442,"77,151,156",Belmont & Sheridan,-87.63977241,41.94004911,60657
1327,443,74,Fullerton & Sacramento,-87.702422,41.924702,60647
16067,444,47,47th Street & Homan,-87.70849809,41.80800427,60632
9273,445,77,Belmont & Central Park,-87.71746099,41.93914853,60618
12469,446,152,Addison & Forest Preserve Avenue,-87.8256147,41.9450165,60634
15787,447,87,87th Street & Ashland,-87.662562,41.73567553,60620
7798,448,39,Pershing & Kedzie,-87.70463903,41.82252159,60632
12238,449,"26,100",106th Street & Avenue O,-87.54024857,41.70267921,60617
3742,450,81,Lawrence & Hamlin,-87.72324927,41.96819794,60625
9374,451,87,87th Street & Lawndale,-87.71419424,41.73487145,60805
14056,452,"22,97,201,205,206",Clark & Howard,-87.67632528,42.01918517,60626
10252,453,54,Cicero Blue Line Station,-87.74506329,41.87161396,60644
510,454,66,Chicago & Austin Terminal,-87.77484321,41.89492553,60651
2537,455,4,Cottage Grove & 37th Street,-87.60896572,41.82782908,60653
5476,456,56,Milwaukee & Armitage,-87.688968,41.917707,60647
5209,457,"J14,15",Jeffery & 67th Street,-87.57657823,41.77315424,60649
5790,458,"8,132",Halsted & Milwaukee/Grand (Blue Line),-87.64770866,41.89145555,60642
1494,459,11,Lincoln & Bryn Mawr,-87.69473609999999,41.98304912,60659
4517,460,"62,62H",Archer & Lavergne,-87.74767867,41.79805927,60638
6091,461,9,Ashland & 57th Street,-87.66463315,41.79045553,60636
5995,462,"9,X9",Ashland & Irving Park,-87.66917232,41.95409096,60613
1,463,126,Jackson & Austin Terminal,-87.77410482,41.87632184,60644
1846,464,"22,36",Clark & North Ave,-87.63186892,41.91131123,60614
2549,465,4,Cottage Grove & 47th Street,-87.60667736,41.80964899,60653
5443,466,56,Milwaukee & Irving Park/Cicero,-87.747703,41.953581,60641
3865,467,57,Laramie & Washington,-87.755065,41.882265999999994,60644
15756,468,29,4900 S State,-87.62587612,41.80580749,60615
1199,469,"136,147,151",Sheridan & Rosemont,-87.655503,41.996592,60660
9998,470,52A,Kedzie & 79th Street,-87.70230819,41.74964316,60652
7746,471,39,Pershing & Cottage Grove,-87.60677568,41.8240502,60653
636,472,"52,66",Chicago & Grand,-87.6997458,41.89570621,60622
13060,473,59,59th Street & Morgan,-87.64969687,41.7870195,60621
357,474,12,Roosevelt & Spaulding,-87.70792594,41.86644971,60624
10866,475,75,75th Street & Stony Island,-87.58556166,41.75882385,60649
15268,476,63,63rd Street & Knox,-87.73845679,41.77853584,60629
808,477,65,Grand & Division,-87.71729954,41.90262083,60651
15519,478,"22,78",Clark & Wilson,-87.66677362,41.96502865,60640
15512,479,29,State & 53rd Street,-87.62568320000001,41.79839203,60609
6274,480,9,Ashland & Roscoe,-87.66861634,41.94316891,60657
2462,481,"4,N5,95",Cottage Grove & 95th Street,-87.60436028,41.72240198,60619
9665,482,91,Austin & Irving Park,-87.77667787,41.95293517,60634
2181,483,3,King Drive & 26th Street,-87.61721999999999,41.845508,60616
8933,484,50,Damen & Armitage,-87.67752329,41.91765787,60622
15767,485,86,Narragansett & Berteau,-87.78658197,41.95645645,60634
6166,486,9,Ashland & 76th Street,-87.66344732,41.75570241,60620
3156,487,52,Kedzie & Harrison (Blue Line),-87.70579833,41.87358262,60612
9653,488,91,Austin & Diversey,-87.77583592,41.93108677,60639
6228,489,9,Ashland & 14th Street,-87.66616127,41.86315748,60608
5941,490,"8,132",Halsted & Chicago,-87.6476005,41.89671578,60610
14967,491,"86,91",Nagle & Higgins,-87.78776243,41.9764704,60630
14762,492,"37,125",Orleans & Grand,-87.63692902,41.89174214,60654
8948,493,50,Damen & Grace,-87.678578,41.950421999999996,60618
5433,494,36,Broadway & Rosemont,-87.66033017,41.99622913,60660
8750,495,50,Damen & 33rd Street,-87.675298,41.833939,60608
1203,496,"147,151,155",Sheridan & Arthur (Red Line),-87.66060059,42.00038209,60626
9095,497,53,Pulaski & Lake (Green Line),-87.72569999,41.8853764,60624
1676,498,49B,Western & Granville,-87.68968100000001,41.993997,60659
9126,499,53,Pulaski & Milwaukee,-87.727138,41.940882,60618
1191,500,"136,147,151",Sheridan & Thorndale,-87.65530799999999,41.990272,60660
9084,501,53,Pulaski & Arthington,-87.7252174,41.86992159,60624
486,502,20,Madison & Hamlin,-87.72097816,41.88086554,60624
7762,503,39,Pershing & Normal,-87.63851462,41.82362964,60609
17679,504,39,Indiana & 41st Street,-87.62137459,41.82032023,60653
14848,505,60,26th Street & Pulaski,-87.72482355,41.84432128,60623
17180,506,"9,X9",Ashland & North Ave,-87.66754012,41.91079268,60622
17320,507,53,Pulaski & Elston,-87.72771187,41.95984955,60641
9924,508,68,Northwest Hwy & Ozark,-87.82024993,42.00524887,60631
4955,509,50,Damen & Lawrence,-87.67907209999998,41.9686349,60625
2437,510,29,Lafayette & 71st Street,-87.62664517,41.76532402,60621
5450,511,56,Milwaukee & Addison,-87.73598605,41.9463881,60641
6252,512,"9,X9",Ashland & Milwaukee (Blue Line),-87.667365,41.903734,60622
11465,513,84,Ridge & Glenwood,-87.665155,41.986653999999994,60660
1414,514,156,LaSalle & Goethe,-87.63311331,41.90557247,60610
10000,515,52A,Kedzie & 77th Street,-87.70245600000001,41.753378999999995,60652
1136,516,151,Lake Shore & Schiller,-87.62576,41.908064,60610
11698,517,86,Narragansett & Wellington,-87.785877,41.934734000000006,60634
11466,518,84,Ridge & Wayne,-87.66380184,41.98583095,60660
16114,519,60,Blue Island & Damen,-87.67539726,41.84857231,60608
11584,520,85,Central & Lake,-87.76504156,41.88787356,60644
6260,521,9,Ashland & Armitage,-87.667794,41.917828,60642
11272,522,82,Kimball & Elston,-87.712713,41.949253000000006,60618
8876,523,50,Damen & Taylor,-87.67637797,41.86922998,60612
15215,524,56,Milwaukee & Central Park,-87.71688531,41.93475823,60618
4511,525,62,Archer & Kostner,-87.73309783,41.8002799,60632
7195,526,28,Stony Island & South Chicago/79th Street,-87.5860046,41.75121319,60619
16186,527,60,Loomis & Cermak,-87.66125787,41.852533,60608
14772,528,54,Cicero & Madison,-87.74537109,41.88023178,60644
9058,529,53,Pulaski & 26th Street,-87.72464904,41.84437938,60623
1061,530,"135,146,151,152",Lake Shore & Grace,-87.64511379,41.95205777,60613
1488,531,11,Lincoln & Winnemac,-87.691278,41.972931,60625
5712,532,"54A,80",Irving Park & Keeler,-87.73284186,41.95369877,60641
4138,533,73,Armitage & Leclaire/Grand,-87.75327908,41.91690557,60639
17404,534,"49,X49",Western & North Ave,-87.68709664,41.91047688,60647
16193,535,21,Cermak & Halsted,-87.64662275,41.85273736,60608
5732,536,80,Irving Park & Melvina,-87.78158805,41.95305459,60634
840,537,"65,74",Grand & Normandy,-87.79268704,41.9236977,60707
15770,538,"119,8A",119th Street & Halsted,-87.64225537,41.67787711,60628
4134,539,73,Armitage & Cicero,-87.74591512,41.91700564,60639
15139,540,7,Congress & Keeler,-87.73061409,41.87438621,60624
1538,541,15,51st Street & St. Lawrence,-87.61116329,41.80220586,60615
15295,542,66,Chicago & Kostner,-87.73623546,41.89525723,60651
797,543,65,Grand & California,-87.696239,41.894236,60612
5728,544,80,Irving Park & Menard,-87.77179216,41.95322134,60634
1241,545,74,Fullerton & Rockwell,-87.69237395,41.92496134,60647
11095,546,76,Diversey & Menard,-87.7709723,41.93128685,60639
2674,547,79,79th Street & California,-87.692447,41.750015000000005,60652
16082,548,63,63rd Street & Lawndale,-87.71559123,41.77884527,60629
15140,549,21,Cermak & Keeler,-87.72989013,41.85165424,60623
3815,550,81,Lawrence & Elston,-87.74012619999999,41.96819346,60630
7001,551,71,Commercial & 96th Street,-87.55096605,41.72086969,60617
9967,552,52A,Kedzie & 110th Street,-87.70079399999999,41.693395,60655
9080,553,53,Pulaski & 13th Street,-87.72502294,41.86425939,60623
14089,554,82,Homan & Maypole,-87.71099775,41.88348535,60624
7355,555,"26,30",Ewing & 105th Street,-87.53518556,41.70450357,60617
9620,556,91,Austin & Railroad Ave (Blue Line),-87.774232,41.870321999999994,60644
2966,557,"4,115",Cottage Grove & 106th Street,-87.60768673,41.70187686,60628
12258,558,100,Avenue B & 107th Street,-87.52569948,41.70079426,60617
11609,559,85,Central & George,-87.766227,41.933015999999995,60634
758,560,29,Navy Pier Terminal,-87.60999416,41.89233194,60611
1133,561,151,Lake Shore & Scott,-87.625024,41.904949,60610
1161,562,"135,146,151",Lake Shore & Brompton,-87.64291887,41.94779691,60657
15446,563,54,Cicero & Ohio,-87.74559743,41.89162563,60644
1113,564,"2,10,29,130,146,147,148",State & Van Buren,-87.62754254,41.87684767,60605
14454,565,36,Broadway & Argyle,-87.6596482,41.9733683,60640
1206,566,"147,151,155",Sheridan & North Shore,-87.66071682,42.003871000000004,60626
3118,567,"47,52",Kedzie & 47th Street,-87.70385679,41.80794026,60632
15404,568,60,Racine & Roosevelt,-87.65659838,41.86726311,60608
2317,569,29,State & 47th Street,-87.62597,41.80908,60609
11582,570,85,Central & Fulton,-87.76495563,41.88558182,60644
14975,571,50,Damen & Division,-87.67716446,41.9034218,60622
2498,572,"2,4",Cottage Grove & 59th Street,-87.60597224,41.78763132,60637
13193,573,60,Loomis & Blue Island,-87.66123267,41.85762294,60608
1583,574,"1,3,4",Michigan & 8th Street,-87.624034,41.87178684,60605
9703,575,"86,91",Nagle & Bryn Mawr,-87.78762514,41.98280027,60630
6283,576,24,Clark & 18th Street,-87.63011177,41.85767207,60616
9698,577,"86,91",Nagle & Foster,-87.78779559,41.97556813,60630
5047,578,44,Racine & 81st Street,-87.65356063,41.74678777,60620
3159,579,52,Kedzie & Jackson,-87.705938,41.877241,60612
15399,580,"22,36",Dearborn & Hubbard,-87.62950029,41.88993758,60654
11610,581,85,Central & Wellington,-87.76629,41.934841,60634
8563,582,81W,Cumberland & Catherine,-87.836529,41.977129999999995,60656
14586,583,"49,X49",Western & Fullerton,-87.68751948,41.92507519,60647
15218,584,52,California & Diversey,-87.69752998,41.93239667,60647
15091,585,"49,X49",Western & 16th Street,-87.68572361,41.85981758,60608
17030,586,55,55th Street & Kilpatrick,-87.73998807,41.79316492,60632
14800,587,20,Madison & Austin,-87.77448828,41.88019802,60644
4941,588,78,Wilson & Broadway (Red Line),-87.6581643,41.96545293,60640
11101,589,76,Diversey & Narragansett,-87.78556126,41.93107318,60634
3003,590,52,California & Logan,-87.69760079,41.92812531,60647
7071,591,"N5,26,71",Commercial & 87th Street,-87.55151042,41.73748305,60617
1033,592,"136,147,151",Sheridan & Granville,-87.655598,41.994419,60660
6130,593,"9,X9",Ashland & 95th Street,-87.66284024,41.72137901,60643
12754,594,"19,20",Washington & Halsted,-87.64669495,41.8830708,60661
12135,595,103,103rd Street & Talman,-87.68844262,41.70625536,60655
12166,596,103,103rd Street & State,-87.62367105,41.70709485,60628
1627,597,15,51st Street & Michigan,-87.62253139,41.80196418,60615
9179,598,51,51st Street & Halsted,-87.64552907,41.8015106,60609
14903,599,152,Addison & Racine,-87.65890761,41.94709173,60613
10515,600,55,55th Street & California,-87.69369019,41.79362322,60632
9500,601,"24,87",87th Street & Aberdeen,-87.65077833,41.73606723,60620
9240,602,77,Belmont & Oak Park,-87.795797,41.938096,60634
10977,603,76,Diversey & Austin,-87.77606999999999,41.931075,60639
15027,604,"N9,95",95th Street & Loomis,-87.65756382,41.72121341,60643
574,605,66,Chicago & LaSalle,-87.63295213,41.89651769,60654
9423,606,87,87th Street & Greenwood,-87.59714192,41.73669466,60619
3760,607,81,Lawrence & Damen,-87.67934992,41.96867195,60625
6700,608,157,900 W Taylor,-87.648754,41.869484,60607
5384,609,24,Clark & Harrison,-87.63059,41.874404,60605
11913,610,93,California & Pratt,-87.699749,42.004758,60645
7951,611,82,Kimball & Addison,-87.7126192,41.94646217,60618
8385,612,"49,X49",Western & Grand,-87.68657188,41.89087135,60612
8970,613,50,Ashland & Hollywood,-87.66973589,41.98525531,60660
8400,614,49,Western & Armitage,-87.68728053,41.91746248,60647
1899,615,22,Clark & Division (Red Line),-87.63136300000001,41.903782,60610
2475,616,4,Cottage Grove & 82nd Street,-87.60493006,41.74577953,60619
15244,617,94,California & 24th Boulevard,-87.695259,41.84817515,60623
9630,618,91,Austin & Lake,-87.77482935,41.88817173,60644
15758,619,54,Cicero & Palmer,-87.74605941,41.92083454,60639
4153,620,94,California & 59th Street,-87.6934954,41.78631799,60629
10326,621,54,Cicero & School,-87.74679602,41.9405597,60641
2131,622,3,King Drive & 69th Street,-87.61527724,41.76947227,60637
4710,623,53A,Pulaski & Marquette Rd,-87.72242686,41.77125208,60629
7619,624,"34,103,106,119",Michigan & 100th Street,-87.62001096,41.71258366,60628
5110,625,44,Wallace & 26th Street,-87.641406,41.845293,60616
4179,626,94,California & 31st Street,-87.69493167,41.83730852,60608
11803,627,90,Harlem & Belmont,-87.80664861,41.93780271,60634
17096,628,53,Pulaski & Belmont,-87.72709927,41.93931828,60618
5257,629,"15,26",103rd Street & Oglesby,-87.56561982,41.70814816,60617
10850,630,71,71st Street & State,-87.62464200000001,41.765570000000004,60637
12077,631,96,Lunt & California,-87.69964482,42.00850519,60645
17000,632,72,North Ave & Ashland,-87.66798959,41.91069828,60622
9690,633,81W,Gunnison & Austin,-87.77872102,41.96858643,60630
12287,634,"34,106",103rd Street & King Drive,-87.61362194,41.70738428,60628
9222,635,51,51st Street & Albany,-87.7014,41.800897,60632
16044,636,7,Harrison & Lotus,-87.76177558,41.87291976,60644
2660,637,79,79th Street & Laflin,-87.66093914,41.75046361,60620
3545,638,97,Oakton & Kenton,-87.74258507,42.02633549,60076
12062,639,96,Lunt & Greenview,-87.66807171,42.00918216,60626
100,640,126,Malcolm X College,-87.67405699999999,41.876242,60612
12109,641,100,95th Street & Greenwood,-87.59718514,41.72225783,60619
826,642,65,Grand & Lockwood,-87.75829719,41.91743849,60639
2643,643,79,79th Street & Perry,-87.62727915,41.75096411,60620
247,644,"7,57",Harrison & Leamington,-87.75320123,41.87305352,60644
7376,645,"30,9E",92nd Street & Commercial,-87.55105308,41.72831121,60617
2637,646,79,79th Street & Indiana,-87.619553,41.751078,60619
11373,647,78,Montrose Brown Line Station,-87.67515475,41.96155781,60640
12569,648,152,Addison & Western,-87.68802662,41.94679975,60618
15032,649,100,106th Street & Ewing,-87.53556637,41.70279708,60617
369,650,12,Roosevelt & Kostner,-87.73479765,41.86610406,60624
1023,651,"147,151,155",Sheridan & Pratt,-87.66099799999999,42.005364,60626
11568,652,85,Central & Fulton,-87.76516547,41.88584689,60644
2240,653,3,King Drive & 71st Street,-87.615323,41.765562,60619
8888,654,50,Damen & Cermak,-87.67593149,41.85227944,60608
11174,655,82,Homan & Madison,-87.71110069,41.88109922,60624
15058,656,53,Pulaski & 28th Street,-87.72452137,41.84047359,60623
1475,657,11,Lincoln & Irving Park/Damen,-87.67857588,41.95399917,60618
4724,658,53A,Pulaski & 59th Street,-87.72311805,41.7860482,60629
15481,659,85,Central & Wrightwood,-87.76618918,41.92747519,60639
5582,660,56,Milwaukee & Irving Park/Cicero,-87.74695351,41.95326444,60641
6364,661,"7,157,60",Clinton & Harrison,-87.641044,41.874518,60607
9017,662,53,Pulaski & North Ave,-87.72653025,41.90961755,60639
14591,663,"11,49,49B,X49",Western & Lawrence,-87.68907108,41.96835624,60625
7080,664,71,Commercial & 95th Street,-87.55116627,41.72287509,60617
5864,665,"8,169",Halsted & 79th Street,-87.6441459,41.7507542,60620
7391,666,30,South Chicago & 79th Street/Stony Island,-87.58519127,41.75135855,60617
5569,667,56,Milwaukee & Belmont,-87.72346689,41.93903555,60618
6116,668,9,Ashland & 81st Street,-87.66347794,41.74678005,60620
11177,669,82,Homan & Jackson,-87.71099052,41.87742861,60624
15867,670,"29,75",State & 79th Street,-87.62448715,41.75145683,60619
11206,671,82,Central Park & 31st Street,-87.714507,41.836968,60623
6676,672,18,Ogden & California,-87.6959094,41.86108034,60623
11901,673,93,California & Bryn Mawr,-87.699079,41.983033,60659
8732,674,48,Damen & 57th Street,-87.67402761,41.79024064,60636
16075,675,53A,Pulaski & 43rd Street,-87.72373264,41.81541965,60632
5891,676,8,Halsted & Garfield,-87.64507153,41.79453677,60609
14573,677,4,Cottage Grove & 71st Street/South Chicago,-87.60546993,41.766172999999995,60637
10331,678,54,Cicero & Grace,-87.74700592,41.94976208,60641
1352,679,"11,74",Lincoln & Webster,-87.64410792,41.9222097,60614
15354,680,"8,N62",Halsted & Cermak,-87.64657701,41.8524593,60608
4414,681,62,Archer & Lawndale,-87.71627198,41.80657397,60632
5545,682,56,Milwaukee & Leavitt,-87.68231991,41.91359493,60647
3725,683,"56,81,81W,91",Milwaukee & Higgins,-87.76184809,41.96900846,60630
15219,684,82,Kimball & Elston,-87.71284586,41.94904319,60618
8820,685,50,Damen & Wilson,-87.67917275,41.96519341,60625
1379,686,11,Lincoln & Montrose/Leavitt,-87.68399589,41.96149188,60618
8833,687,50,Damen & Roscoe,-87.678522,41.943296000000004,60618
6040,688,9,Ashland & Adams,-87.66687952,41.87896893,60612
8257,689,"49,X49",Western & 26th Street,-87.68559876,41.84490973,60608
4565,690,55A,Austin & 63rd Street,-87.771564,41.777934,60638
8844,691,50,Damen & Armitage,-87.67771399,41.91785449,60647
6614,692,37,Wells & Ontario,-87.63419167,41.89324935,60654
14576,693,"49,X49",Western & 63rd Street,-87.68378303,41.77902941,60636
6750,947,18,16th Street & Albany,-87.703052,41.859055,60623
1502,948,11,Lincoln & Peterson,-87.70687864,41.99023575,60659
18175,949,82,Homan & Chicago,-87.71151726,41.89524722,60624
1446,950,156,LaSalle & Division,-87.63278441,41.90402022,60610
15356,951,8,Halsted & Lake,-87.64741126,41.88581892,60661
11740,952,86,Narragansett & Bloomingdale,-87.785039,41.912684999999996,60639
5966,953,8,Halsted & Belmont,-87.64916375,41.93989962,60657
15845,954,56,Milwaukee & Wolcott/Wood,-87.67280550000001,41.90748086,60622
1841,955,"22,36",Clark & Dickens,-87.63733631,41.92021774,60614
9948,956,68,Northwest Hwy & Austin,-87.77827135,41.98059624,60630
14057,957,22,Clark & Rogers,-87.67532833,42.01611703,60626
1365,958,11,Lincoln & Bryn Mawr,-87.69552629,41.98324763,60659
2393,959,29,State & 29th Street,-87.626915,41.842095,60616
5336,960,36,Broadway & Victoria,-87.660241,41.987013,60660
6544,961,24,Wentworth & 72nd Street,-87.629778,41.763775,60621
6554,962,"8A,24",Vincennes & 82nd Street,-87.635665,41.745442,60620
8627,963,169,Ups Facility Stop 1,-87.884297,41.747603999999995,60480
1072,964,"134,143,151,156",Sheridan & Briar,-87.63956872,41.93857023,60657
11131,965,82,Kimball & Montrose,-87.713207,41.961208,60618
2423,966,29,State & 57th Street,-87.625683,41.791222999999995,60621
8790,967,"48,94",Damen & 71st Street,-87.67363793,41.76490678,60636
14443,968,36,Broadway & Rosemont,-87.66055921,41.99620279,60660
9011,969,53,Pulaski & Palmer,-87.72676094,41.92091292,60639
7232,970,30,South Chicago & 76th Street,-87.5934354,41.75700646,60619
8878,971,"50,755",Damen & Roosevelt,-87.67640629,41.86698772,60612
5374,972,36,State & Oak,-87.628399,41.900874,60610
9062,973,53,Pulaski & 31st Street,-87.72444387,41.83698694,60623
2250,974,3,King Drive & 81st Street,-87.61494069,41.74733349,60619
463,975,20,Madison & Loomis,-87.66204,41.881586999999996,60607
6819,976,18,18th Street & Damen,-87.67586875,41.85771957,60608
16139,977,"12,18",Roosevelt & State,-87.62782765,41.86753563,60605
14525,978,66,Chicago & Long,-87.76074175,41.89493147,60651
15948,979,81,Lawrence & Sacramento,-87.70386801,41.96854818,60625
10900,980,75,74th Street & Loomis,-87.65920513,41.75957419,60636
6864,981,21,Cermak & Wood,-87.67065615,41.85229837,60608
2641,982,79,79th Red Line Station,-87.6252,41.75111,60620
17198,983,155,Devon & Leavitt,-87.68515817,41.99788139,60659
17384,984,39,Pershing & State,-87.62670338,41.82378571,60609
9141,985,53,Pulaski & Lawrence,-87.72792108,41.96814799,60630
2157,986,3,King Drive & 45th Street,-87.61650870000001,41.81317238,60653
11242,987,82,Homan & Franklin,-87.71111999,41.88961958,60624
5873,988,8,Halsted & 71st Street,-87.64432362,41.76510561,60621
9966,989,52A,Kedzie & 111th Street,-87.70072914,41.69147022,60655
2520,990,4,Cottage Grove & Pershing,-87.60697907,41.82428475,60653
1198,991,"136,147,151",Sheridan & Granville,-87.655447,41.994775,60660
9992,992,52A,Kedzie & 85th Street,-87.702013,41.738762,60652
14585,993,"49,X49",Western & Elston/Diversey,-87.68803463,41.93193724,60647
4611,994,"54B,63,63W,165",Cicero & 61st Street,-87.74258776,41.78223443,60638
5235,995,"J14,15",Jeffery & 93rd Street,-87.5755147,41.72598361,60617
5132,996,44,Wallace & 26th Street,-87.64166709999999,41.84524967,60616
5863,997,8,Halsted & 78th Street,-87.64412228,41.75249908,60620
4048,998,73,Armitage & Spaulding,-87.710368,41.9173,60647
3443,999,63,63rd Street & Drexel,-87.60429231,41.78037629,60637
12223,1000,106,103rd Street & Corliss,-87.60348147,41.70743581,60628
17208,1001,86,Narragansett & Diversey,-87.78559920000001,41.93116013,60634
17214,1002,53,Pulaski & Ferdinand,-87.72583368,41.890045799999996,60624
17318,1003,53,Pulaski & Irving Park,-87.72754469,41.95391974,60641
14537,1004,9,Ashland & Blackhawk,-87.6674775,41.90711358,60622
10307,1005,54,Cicero & Hirsch,-87.74593133,41.90589491,60651
75,1006,"1,7,28,126",Michigan & Van Buren,-87.62416,41.87669,60605
1898,1007,"22,70",Clark & Maple,-87.631311,41.901744,60610
9064,1008,53,Pulaski & 31st Street,-87.724266,41.837053999999995,60623
3149,1009,52,Kedzie & Douglas,-87.70548753,41.86314714,60623
1963,1010,22,Clark & Lunt,-87.67385697,42.00892504,60626
2466,1011,4,Cottage Grove & 91st Street,-87.60451852,41.72927494,60619
11233,1012,82,Homan & Jackson,-87.71078926,41.87718223,60624
2124,1013,3,King Drive & 76th Street,-87.61492821,41.75667433,60619
16034,1014,"86,91",Nagle & Northwest Hwy,-87.78760613,41.98620339,60646
2519,1015,4,Cottage Grove & Oakwood,-87.60678482,41.82257538,60653
1581,1016,"1,3,4",Michigan & 11th Street,-87.6239645,41.86914471,60605
1153,1017,"77,134,143,151,156",Sheridan & Briar,-87.63942688,41.93869424,60657
2481,1018,4,Cottage Grove & 76th Street,-87.60520623,41.75668078,60619
15194,1019,29,State & 87th Street,-87.62407193,41.73657371,60619
14844,1020,85,Central & Madison,-87.76476232,41.88047014,60644
14792,1021,22,Clark & Bryn Mawr,-87.66871024,41.98369418,60660
5272,1022,100,100th Street & Bensley,-87.56364101,41.71359746,60617
12208,1023,103,103rd Street & Lawndale,-87.71349459,41.70611649,60655
10633,1024,55,4600 W 55th Street,-87.73783809999999,41.79315411,60632
8118,1025,47,47th Street & Kilpatrick,-87.74062181,41.80774394,60632
2629,1026,79,79th Street & Drexel,-87.60263701,41.75136397,60619
12110,1027,100,930 E 95th Street,-87.60085375,41.72215687,60619
12624,1028,152,Addison & Olcott,-87.8141921,41.94521888,60634
13091,1029,59,59th Street & Keeler,-87.72774557,41.78595323,60629
12011,1030,"N5,95",93rd Street & Oglesby,-87.56690981,41.72626354,60617
5141,1031,44,Wallace & 36th Street,-87.64133844,41.82907518,60609
1470,1032,11,Lincoln & Cornelia,-87.67217528,41.94503535,60657
8155,1033,"47,94",47th Street & Western Avenue,-87.68456254,41.8083739,60609
721,1034,65,Grand & Western,-87.68684427,41.89056857,60612
275,1035,12,Roosevelt & Independence,-87.72026246,41.86614847,60624
3496,1036,95,95th Street & Ashland,-87.6629445,41.72110673,60643
4927,1037,"80,135,148",Irving Park & Marine Drive,-87.64547931,41.95457656,60613
12063,1038,96,Lunt & Ashland,-87.66994008,42.00910747,60626
12552,1039,152,Addison & Halsted,-87.64931745,41.94737081,60613
10062,1040,52A,115th Street & Central Park,-87.71008298,41.68415983,60655
12562,1041,152,Addison & Lincoln,-87.67349668,41.94700475,60613
465,1042,20,Madison & Ashland,-87.666567,41.881523,60607
11081,1043,76,Diversey & Kostner,-87.73669616,41.93177007,60639
11093,1044,76,Diversey & Central,-87.76610363,41.93134845,60639
2083,1045,70,Division & Pulaski,-87.72609819,41.90274481,60651
15811,1046,157,Taylor & Racine,-87.65700744,41.86947788,60607
16121,1047,75,75th Street & Vincennes,-87.63166392,41.75819155,60621
14815,1048,63,63rd Street & Kedzie,-87.70346872,41.77904541,60629
4803,1049,"50,92",Foster & Ravenswood,-87.67427228,41.97616267,60640
14830,1050,73,Armitage & Kimball,-87.71218178,41.9173951,60647
10615,1051,55,55th Street & California,-87.693894,41.793745,60632
466,1052,20,Madison & Paulina,-87.669113,41.88149,60612
16174,1053,152,Addison & Pulaski,-87.72707438,41.94630968,60641
10783,1054,71,71st Street & Indiana,-87.620293,41.765553000000004,60619
1111,1055,147,Congress & Wabash,-87.625788,41.875768,60605
5552,1056,56,Milwaukee & Talman,-87.69356962,41.92072237,60647
6531,1057,"24,59",Wells & 58th Street,-87.63178,41.789008,60621
3621,1058,"93,97",Dodge & Brummel,-87.69957576,42.02131779,60202
6015,1059,9,Ashland & Elston,-87.66838681,41.919052,60614
2451,1060,29,Lafayette & 84th Street,-87.625652,41.741918,60620
7178,1061,"15,28",Lake Park & 54th Street,-87.58736492,41.79818313,60615
2217,1062,3,King Drive & 50th Street,-87.6165569,41.80371626,60615
15052,1063,"2,10,29,130,146,148",State & Harrison/Congress,-87.62745282,41.87488286,60605
15048,1064,11,Kedzie & Arthur,-87.70926277,41.99913277,60645
3775,1065,"81,136,146",Marine Drive & Leland,-87.64905209999999,41.96734713,60640
12040,1066,96,Touhy & Sacramento,-87.70451857,42.01178544,60645
178,1067,7,Harrison & Homan,-87.71088,41.873566,60624
12513,1068,152,Addison & Hamlin,-87.72263599,41.946354299999996,60618
12533,1069,152,Addison Brown Line Station,-87.67464775,41.946841600000006,60613
1029,1070,"136,147,151",Sheridan & Broadway/Devon,-87.6602255,41.99813048,60660
3103,1071,"52,52A",Kedzie & 60th Street,-87.70321284,41.7843635,60629
11914,1072,93,California & Morse,-87.69972299999999,42.006561,60645
10439,1073,54A,Skokie Blvd & Searle,-87.74734592,42.02931587,60077
3563,1074,"54A,97",Bronx & Dempster,-87.75048791,42.04092439,60077
2517,1075,4,Cottage Grove & 41st Street,-87.60674499999999,41.820363,60653
10044,1076,52A,Kedzie & 101st Street,-87.70152878,41.70982987,60805
6608,1077,37,Orleans & Hill,-87.63746400000001,41.902172,60610
10036,1078,52A,Kedzie & 93rd Street,-87.70202788,41.72450123,60805
7320,1079,30,Baltimore & 132nd Street,-87.54720579,41.65559229,60633
11526,1080,85,Central & Cullom,-87.76724899999999,41.958729999999996,60634
11190,1081,82,Central Park & 15th Street,-87.715323,41.86088,60623
73,1082,"1,3,4,7,J14,26,28,126,132,143,147",Michigan & Van Buren/Congress,-87.62439599999999,41.876271,60605
11153,1083,82,Kimball & Cortland,-87.711919,41.915597,60647
1786,1084,22,Clark & Morse,-87.6737916,42.00786659,60626
6535,1085,24,Yale & 63rd Street,-87.63185497,41.78010089,60621
6545,1086,24,Wentworth & 73rd Street,-87.62975300000001,41.761973,60621
17676,1087,"4,115",Cottage Grove & 111th Street,-87.60966564,41.69310103,60628
17677,1088,X98,Golf Road & Waukegan (Avon),-87.79790345,42.05487834,60053
17481,1089,77,Belmont & Narragansett,-87.78565251,41.93825134,60634
17479,1090,77,Belmont & Sacramento,-87.70306969,41.93943345,60618
17483,1091,77,Belmont & Sayre,-87.80157796,41.93813126,60634
14809,1092,"65,74",Grand & Oak Park,-87.79543545,41.923666299999994,60707
10987,1093,76,Diversey & Lavergne,-87.75160100000001,41.931409,60639
4383,1094,"62,62H",Archer & Nashville,-87.78679100000001,41.792184999999996,60638
4867,1095,"135,146",Lake Shore Drive & Belmont,-87.63892797,41.94036377,60657
2336,1096,29,State & 29th Street,-87.62655699999999,41.841728,60616
5895,1097,8,Halsted & 51st Street,-87.645259,41.801442,60609
6371,1098,60,Racine & 14th Street,-87.65665712,41.86352438,60608
17327,1099,53,Pulaski & Irving Park,-87.72770976,41.95348809,60641
10485,1100,54A,Cicero & Elston,-87.74802538,41.973084,60630
17334,1101,52,California & Diversey,-87.6977113,41.93193819,60647
6120,1102,9,Ashland & 85th Street,-87.66328726,41.73951661,60620
8842,1103,50,Damen & Webster,-87.677848,41.921465999999995,60647
4859,1104,"136,146",Marine Drive & Wilson,-87.64871277,41.96559975,60640
3054,1105,52,Kedzie & 19th Street,-87.705422,41.85549,60623
9565,1106,91,Austin & Irving Park,-87.77687084,41.95316302,60634
9609,1107,91,Austin & Jackson,-87.77453904,41.87634274,60304
2245,1108,3,King Drive & 76th Street,-87.61517512,41.75647224,60619
10216,1109,54,Cicero & Diversey,-87.74673913,41.93163698,60639
5347,1110,36,Broadway & Lawrence,-87.65979046,41.96915711,60640
2588,1111,4,Cottage Grove & 85th Street,-87.60501796,41.74035502,60619
12847,1112,53A,Pulaski & Archer,-87.72355546,41.80178737,60632
8255,1113,49,Western & 24th Street,-87.68566209,41.84848433,60608
5373,1114,36,State & Maple,-87.62843000000001,41.901984999999996,60610
8187,1115,"49,X49",Western & Montrose,-87.68882368,41.96141941,60618
14963,1116,50,Damen & Division,-87.67732821,41.90302211,60622
1417,1117,156,LaSalle & Oak,-87.632942,41.900327000000004,60610
9753,1118,"85,85A",Milwaukee & Central,-87.76826991,41.97644309,60630
16057,1119,"24,43",Wentworth & 43rd Street,-87.63125028,41.81622959,60609
1431,1120,"2,6,10,29,62,130,146,148",State & Harrison/Congress,-87.62769601,41.87499673,60605
2204,1121,3,King Drive & 37th Street,-87.61717809,41.82740376,60653
11464,1122,84,Ridge & Ardmore,-87.66762668,41.98817618,60660
11204,1123,82,Lawndale & 31st Street,-87.71710733,41.83710346,60623
1830,1124,22,Clark & Wellington,-87.64802165,41.93651476,60657
3021,1125,52,California & Augusta,-87.69688045,41.89939053,60622
1070,1126,151,Lake Shore & Melrose,-87.63966994,41.94128406,60657
11179,1127,82,Homan & Congress,-87.710859,41.874632,60624
593,1128,"3,66,120,121,157",Fairbanks & Erie,-87.620224,41.894081,60611
15082,1129,"34,103,106,119",Michigan & 100th Street,-87.62023106,41.71248727,60628
6118,1130,"9,X9",Ashland & 83rd Street,-87.66340003,41.74324658,60620
11688,1131,86,Narragansett & Irving Park,-87.78665811,41.95304141,60634
11565,1132,85,Central & Race,-87.765247,41.889379,60644
3028,1133,52,Kedzie & Franklin,-87.70647759,41.88964213,60612
17226,1134,9,Ashland & 14th Street,-87.6664269,41.8631206,60608
5599,1198,80,Irving Park & Overhill,-87.81948345,41.9524223,60634
10790,1199,71,71st Street & Langley,-87.60864987,41.76573529,60619
15384,1200,20,Madison & Leavitt,-87.68122249,41.88117403,60612
10196,1201,"N5,67",67th Street & Stony Island,-87.58643902,41.77326898,60649
715,1202,65,Grand & Chicago,-87.70052166,41.89579281,60622
8616,1203,50,Ashland & Balmoral,-87.66984583,41.97991834,60640
5587,1204,56,Milwaukee & Sunnyside,-87.75586565,41.96239826,60630
6491,1205,24,Clark & Cermak,-87.63016745,41.85305713,60616
4627,1206,"37,125",Orleans & Hubbard,-87.636893,41.889821000000005,60654
6683,1207,"49,157",Western & Taylor,-87.68597557,41.8688718,60612
1211,1208,"147,151",Sheridan & Lunt,-87.66199499999999,42.009358,60626
14444,1209,36,Broadway & Granville,-87.66051018,41.99438051,60660
5956,1210,8,Halsted & Webster,-87.64853642,41.92172473,60614
4638,1211,8,Halsted & Harrison,-87.64725505,41.87383531,60607
3665,1212,8A,Halsted & 91st Street,-87.643293,41.72869,60620
10490,1213,54A,Cicero & Montrose,-87.74768363,41.96084042,60641
4922,1214,"135,148",Clarendon & Buena,-87.649885,41.958562,60613
6171,1215,9,Ashland & 71st Street,-87.66364073,41.76477885,60636
8722,1216,48,Damen & Marquette Rd,-87.673643,41.772003000000005,60636
3838,1217,57,Laramie & Ohio,-87.75552900000001,41.891328,60644
6351,1218,"7,37,60,125,157",Canal & Van Buren,-87.639438,41.876999999999995,60606
6711,1219,"134,135,136,156",Franklin & Jackson,-87.63510947,41.87791526,60606
1415,1220,156,LaSalle & Division,-87.63305240000001,41.90365174,60610
14429,1221,22,Clark & Touhy,-87.67469663,42.01244335,60626
4732,1222,"1,7,28,126,130,151",Adams & State,-87.6281053,41.87950874,60603
15942,1223,47,47th Street & Archer,-87.71455604,41.80804677,60632
6824,1224,18,16th Street & Western,-87.68603763,41.85942684,60608
844,1225,"65,74",Grand & Sayre,-87.80051574,41.92359903,60707
120,1226,126,Jackson & California,-87.69648347,41.87749585,60612
11397,1227,78,Montrose & Keeler,-87.73265309,41.96096348,60641
11052,1228,76,Diversey & Paulina,-87.67083373,41.93239754,60614
6476,1229,"24,43",LaSalle & 43rd Street,-87.62937,41.816265,60609
9646,1230,91,Austin & Dickens,-87.775438,41.917813,60639
1182,1231,151,Sheridan & Argyle,-87.65485,41.973476,60640
14453,1232,36,Broadway & Ainslie,-87.65961032,41.97163516,60640
8734,1233,48,Damen & Garfield,-87.67419001,41.7934719,60636
16122,1234,49B,Western & Berwyn,-87.68911811,41.97786718,60625
9107,1235,53,Pulaski & Grand,-87.72630127,41.90600173,60651
1132,1236,151,Lake Shore & Division,-87.624966,41.904191,60611
3188,1237,52,California & Armitage,-87.69711600000001,41.917396999999994,60647
6455,1238,24,Wentworth & 62nd Street,-87.630165,41.781513000000004,60621
5509,1239,124,Columbus (Mid) & E. Wacker,-87.620595,41.887356,60601
2920,1240,111,111th Street & Morgan,-87.64706239,41.69236761,60643
14567,1241,"120,121",S. Water (Lower) & Michigan,-87.6252955,41.88673704,60601
17434,1242,47,Kedzie Orange Line Station,-87.70458749,41.80486704,60632
6736,1243,18,16th Street & Kilbourn,-87.73734058,41.85860958,60623
12132,1244,103,103rd Street & Francisco,-87.69404297,41.70619487,60655
12498,1245,152,Addison & Lockwood,-87.75942346,41.94593383,60641
14707,1246,205,Church & Florence,-87.69510981,42.04830361,60201
4035,1247,73,Armitage & Kilbourn,-87.738878,41.916961,60639
9241,1248,77,Belmont & Normandy,-87.793373,41.938136,60634
2780,1249,79,79th Street & Calumet,-87.61665534,41.75104397,60619
5249,1250,"J14,100",100th Street & Hoxie,-87.56073746,41.71351825,60617
3762,1251,81,Lawrence & Ravenswood,-87.6739681,41.96874279,60640
8056,1252,43,43rd Street & Vincennes,-87.61417553,41.81662341,60653
12162,1253,103,103rd Street & Eggleston,-87.63356297,41.70697415,60628
10911,1254,75,74th Street & Paulina,-87.666105,41.759344,60636
9366,1255,87,87th Street & Kilbourn,-87.73371104,41.734488899999995,60456
3420,1256,63,63rd Street & Peoria,-87.64732819,41.77963735,60621
3316,1257,63W,63rd Street & Lawler,-87.74845743,41.77824702,60638
4755,1258,92,Foster & Lacrosse,-87.74936689,41.97525354,60630
14696,1259,"54A,205",Old Orchard Rd & Lavergne,-87.75158399,42.06243749,60077
9226,1260,77,Belmont & Pioneer,-87.83111997,41.93763271,60171
7671,1261,35,35th Street & Aberdeen,-87.653444,41.830586,60609
17273,1135,50,Damen & Adams,-87.67666754,41.87856984,60612
11562,1136,85,Central & Chicago,-87.76549056,41.89495867,60651
6030,1137,9,Ashland & Erie,-87.66733943,41.89343335,60622
3062,1138,52,Kedzie & 28th Street,-87.70501114,41.84095751,60623
14542,1139,"N5,71",Commercial & 91st Street,-87.55133017,41.72991024,60617
15029,1140,62,Archer & Pope John Paul II/43rd St,-87.7015393,41.81564985,60632
8848,1141,50,Damen & Milwaukee/North Ave,-87.67755874,41.91063047,60647
10241,1142,54,Cicero & Lake (Green Line),-87.74559453,41.88677546,60644
15795,1143,"9,X9",Ashland & Diversey,-87.66852706,41.93217229,60614
15242,1144,54,Cicero & Wellington,-87.74686602,41.93486274,60641
1595,1145,"1,3,4",Michigan & 16th Street,-87.62409418,41.85994461,60616
14564,1146,56,Milwaukee & Armitage,-87.68871227,41.91772538,60647
3843,1147,57,Laramie & Washington,-87.75520999999999,41.882431,60644
9142,1148,53,Pulaski & Ainslie,-87.72798456,41.96995872,60630
1610,1149,"1,4,35",Michigan & 34th Street,-87.623357,41.832755,60616
15319,1150,"147,151",Rogers & Paulina,-87.6724214,42.01744751,60626
11716,1151,86,Ridgeland & Augusta,-87.78502675,41.89830304,60302
1967,1152,22,Clark & Chase,-87.674752,42.013662,60626
12918,1153,53A,Pulaski & 70th Street,-87.72226335,41.76580852,60629
11524,1154,85,Central & Sunnyside,-87.76736899999999,41.962413,60630
2431,1155,29,State & 65th Street,-87.62533405,41.77628482,60621
15903,1156,"22,24",Clark & Madison & Monroe,-87.6309716,41.8813809,60603
17263,1157,65,Grand & Christiana,-87.71039605,41.89987296,60651
17306,1158,62,Archer & 33rd Street,-87.67214929,41.83387124,60608
12863,1159,53A,Pulaski & 70th Street,-87.722499,41.765991,60629
12859,1160,53A,Pulaski & 65th Street,-87.722726,41.775090999999996,60629
17242,1161,4,Cottage Grove & 43rd Street,-87.60680029,41.81657697,60653
3020,1162,52,California & Thomas,-87.696915,41.901183,60622
1700,1163,49B,Western & Pratt,-87.69023418,42.00513843,60645
10020,1164,52A,Kedzie & 77th Street,-87.702601,41.753545,60652
1178,1165,151,Sheridan & Leland,-87.654733,41.967182,60640
1839,1166,"22,36",Clark & Belden,-87.63951871,41.92380937,60614
4408,1167,62,Archer & Keeler,-87.72836178,41.80083254,60632
2125,1168,3,King Drive & 75th Street,-87.61503502,41.75859759,60619
1212,1169,"147,151",Sheridan & Greenleaf,-87.662412,42.010571999999996,60626
5284,1170,"J14,15",Jeffery & 95th Street,-87.57527487,41.72234905,60617
8995,1171,53,Pulaski & Avondale,-87.72764254,41.95083428,60641
1909,1172,"22,36",Clark & Webster,-87.63812875,41.92185825,60614
15488,1173,63,63rd Street & Ellis,-87.60128797,41.78052619,60637
3181,1174,52,California & Evergreen,-87.69680686,41.90559277,60622
11802,1175,90,Harlem & Barry,-87.806609,41.936282,60634
15866,1176,4,Cottage Grove & 38th Street,-87.60796539,41.82622647,60653
11624,1177,85,Central & Cullom,-87.767104,41.958565,60634
9114,1178,53,Pulaski & Dickens,-87.72651393,41.918866799999996,60647
12113,1179,100,9800 S Yates,-87.56457713,41.71702525,60617
3113,1180,"51,52,52A",5000 S Kedzie,-87.70372131,41.80265955,60632
15222,1181,54,Cicero & Cortland,-87.74591341,41.91522953,60639
7109,1182,28,Stony Island & 86th Street,-87.58522054,41.73885134,60617
11910,1183,93,California & Arthur,-87.699607,41.999297,60645
15684,1184,62,Pulaski Orange Line Station,-87.72433817,41.80008953,60632
6585,1185,"120,121",Michigan (Lower) & Illinois,-87.62399347,41.890836900000004,60611
6583,1186,"120,121",Michigan (Lower) & E. Wacker,-87.62445143,41.8880562,60601
6586,1187,"120,121",Michigan (Lower) & Illinois,-87.62429240000002,41.89100608,60611
6584,1188,"120,121",Michigan (Lower) & Hubbard,-87.62396733,41.89018553,60611
11458,1189,84,Peterson & Target (2100 W),-87.68340358,41.990509100000004,60625
2005,1190,70,Division & Campbell,-87.68964098,41.90293582,60622
5627,1191,80,Irving Park & Leclaire,-87.75478144,41.95323007,60641
2749,1192,79,79th Street & Hoyne,-87.67567671,41.75013011,60620
3414,1193,63,63rd Street & Laflin,-87.661884,41.779445,60636
4649,1194,"62H,63W",63rd Street & 73rd Avenue,-87.80338469,41.77713808,60501
12475,1195,152,Addison & Oketo,-87.811931,41.945107,60634
265,1196,12,Roosevelt & 47th Avenue,-87.74241065,41.86585838,60804
9165,1197,51,2135 W 51st Street,-87.67883499999999,41.801171999999994,60609
2979,821,"N5,95,100,115",95th Street & St. Lawrence,-87.60922056,41.72207767,60619
12428,822,119,119th Street & Loomis,-87.65638638,41.67766994,60643
2865,823,111,115th Street & Watkins,-87.6660827,41.68479439,60643
15930,824,"80,X9",Irving Park & Fremont,-87.65200368,41.95459923,60613
132,825,126,Jackson & Karlov,-87.72819551,41.87710765,60624
615,826,66,Chicago & Sangamon,-87.65170798,41.89639185,60642
11410,827,78,Montrose & Linder,-87.76465123,41.96063475,60641
9529,828,87,87th Street & Kostner,-87.7309976,41.73479831,60652
9531,829,87,87th Street & Kenton,-87.73589812,41.73472499,60652
6393,830,60,26th Street & California Boulevard,-87.69446793,41.844763799999996,60608
12198,831,103,103rd Street & Fairfield,-87.69016076,41.70641867,60655
2618,832,79,79th Street & Cregier,-87.58076729999999,41.75160419,60649
3534,833,97,Oakton & St. Louis,-87.71558719,42.02638395,60076
15427,834,79,79th Street & Karlov,-87.72452601,41.74956809,60652
1768,835,155,Devon & Hoyne,-87.682489,41.997896999999995,60645
14682,836,"201,206",Central Street & Hartrey,-87.70327442,42.06443745,60201
11046,837,76,Diversey & Seminary,-87.65642941,41.93264985,60614
15692,838,21,Cermak & Carpenter,-87.65340227,41.85260995,60608
6849,839,21,Cermak & Lumber,-87.64154548,41.852770899999996,60616
11499,840,84,Peterson & Lawndale,-87.72102078,41.99028253,60659
10822,841,71,71st Street & Paxton,-87.571218,41.766337,60649
9484,842,87,87th Street & Calumet,-87.61607118,41.73655705,60619
11372,843,78,Montrose & Ravenswood,-87.673689,41.961595,60640
11487,844,84,Peterson & Campbell,-87.69204518,41.99059614,60659
2645,845,"8A,24,79",79th Street & Princeton,-87.631848,41.750875,60620
3543,846,97,Oakton & Kostner,-87.73751751,42.02629076,60076
12631,847,152,Addison & Paris,-87.83023936,41.94503207,60634
11493,848,84,Peterson & Whipple,-87.70520094,41.99051414,60659
12070,849,96,Lunt & Hamilton,-87.68379496,42.00893851,60645
10314,850,54,Cicero & Dickens,-87.7460233,41.91869598,60639
6473,851,"24,43",LaSalle & 46th Place,-87.629903,41.810642,60609
10409,852,"54B,N60",Cicero & 24th Place,-87.74397937,41.84649936,60804
7659,853,62H,Harlem & 56th Street,-87.801283,41.790092,60638
9621,854,91,Austin & Harrison,-87.77426868,41.87268448,60644
11209,855,82,Lawndale & 27th Street,-87.717101,41.842426,60623
3566,856,"54A,97",Bronx & Davis,-87.75045403,42.0461903,60077
12913,857,"53A,79",8000 S Pulaski,-87.7216304,41.74779616,60652
5410,858,36,Broadway & Belle Plaine,-87.651957,41.956821999999995,60613
11229,859,82,Homan & Lexington,-87.71064799999999,41.871733,60624
11244,860,82,Homan & Ohio,-87.711264,41.891758,60624
9617,861,91,Austin & Roosevelt,-87.774045,41.865629,60644
9656,862,91,Austin & Barry,-87.776073,41.936519,60634
10397,863,54B,4000 S Cicero,-87.74335494,41.82054103,60804
15056,864,53,2300 S Pulaski,-87.72459428,41.84950022,60623
5308,865,"N5,15",Jeffery & 70th Street,-87.57628000000001,41.768122999999996,60649
10434,866,54A,Cicero & Sherwin,-87.74776084,42.01439854,60712
11603,867,85,Central & Belden,-87.76583343,41.92211199,60639
2974,868,"4,115",Cottage Grove & 98th Street,-87.60435845,41.71654592,60628
11276,869,82,Kimball & Belle Plaine,-87.712886,41.955609,60618
11797,870,90,Harlem & Wrightwood,-87.80623985,41.92703648,60707
11804,871,90,Harlem & School,-87.80673,41.939727000000005,60634
17389,872,"90,307,318",Harlem & Ontario,-87.80499844,41.89095701,60302
17393,873,"36,78",Broadway & Sunnyside,-87.6564865,41.96404636,60640
7425,874,35,31st Street & Spaulding,-87.70708721,41.83727124,60623
6549,875,24,Vincennes & 77th Street,-87.633173,41.754567,60620
6481,876,"24,31",LaSalle & 33rd Street,-87.629855,41.834437,60616
15920,877,30,Brainard & Baltimore,-87.54703703,41.64944860000001,60633
1483,878,11,Western Brown Line Station,-87.68855157,41.96605186,60625
17379,879,77,Belmont Red/Brown/Purple Line Station,-87.65306242,41.9398701,60657
17387,880,79,79th Street & Honore,-87.66960835,41.750206299999995,60620
1834,881,"22,36",Clark & Drummond,-87.64402029,41.93072459,60614
15736,882,"90,307,318",Harlem & Quick,-87.80523443,41.89024247,60305
14160,883,"2,124",Navy Pier Terminal,-87.61000321,41.89265713,60611
5875,884,169,Halsted & 69th Street,-87.64442067,41.76872469,60621
2500,885,"2,4,192",Cottage Grove & 57th Street,-87.60608169,41.79120894,60637
6890,886,24,79th Street & Vincennes,-87.63370271,41.75072479,60620
6451,887,24,Wentworth & 66th Street,-87.629938,41.774418,60621
12702,888,"201,206",Central Street & Crawford,-87.72712907,42.06466968,60201
1918,889,22,Clark & Surf,-87.64630187,41.93475201,60657
15712,890,"90,307",Harlem & Armitage,-87.8059179,41.91611291,60707
10384,891,54B,Cicero & 72nd Street,-87.74157749,41.76181935,60629
2299,892,29,State & 64th Street,-87.625167,41.777535,60637
7615,893,"34,119",Michigan & 104th Street,-87.62043576,41.70527265,60628
7618,894,"34,103,106,119",Michigan & 101st Street,-87.61980981,41.7107368,60628
11261,895,82,Kimball & Belden,-87.711968,41.92275,60647
17039,896,"J14,15",Jeffery & 77th Street,-87.57597933,41.75514919,60649
6414,897,112,Vincennes & Winston (10200 South),-87.65528733,41.70855126,60643
4146,898,94,California & 66th Street,-87.693139,41.773571000000004,60629
16011,899,205,Chicago Avenue & South Blvd (Purple Line),-87.67805254,42.02712735,60202
14376,900,"93,206",Dodge & Greenwood,-87.69897769,42.04260128,60201
2283,901,29,State & 80th Street,-87.624425,41.748982,60619
12112,902,100,Yates & 99th Street,-87.56455163,41.71525596,60617
5304,903,"N5,15",Jeffery & 74th Street,-87.57611800000001,41.760903000000006,60649
9670,904,91,Austin & Sunnyside,-87.777005,41.962075,60630
12899,905,"53A,103",Pulaski & 101st Street,-87.72083418,41.70943445,60655
7812,906,62H,Harlem & 58th Street,-87.80117800000001,41.786431,60638
10324,907,54,Cicero & Barry,-87.7466676,41.93691763,60641
2362,908,95,Western & 95th Street,-87.68195337,41.72147898,60643
11600,909,85,Central & Armitage,-87.765628,41.916751,60639
7026,910,"N5,6,26,71",S. Shore Drive & 76th Street,-87.55554097,41.759025,60649
2166,911,3,3600 S King Drive,-87.61700791,41.82919999,60653
4147,912,94,California & 65th Street,-87.693182,41.775395,60629
1156,913,"135,146,151",Lake Shore & Aldine,-87.63989396,41.94239795,60657
11269,914,82,Kimball & Wisner/Wellington,-87.71229703,41.93528733,60618
12206,915,103,103rd Street & St. Louis,-87.70859296,41.70619256,60805
8089,916,"47,48",47th Street & Oakley,-87.68185692,41.80850079,60609
946,917,72,North Ave & Hoyne,-87.67976026,41.91053508,60647
2102,918,70,Division & Mayfield,-87.77280528,41.9021535,60651
12072,919,96,Lunt & Oakley,-87.68801666,42.008705400000004,60645
12626,920,152,Addison & Overhill,-87.81946735,41.94528658,60634
4686,921,"62H,63W",63rd Street & 73rd Avenue,-87.80325227,41.77733521,60501
4214,922,94,Fulton & California,-87.69629990000001,41.88660797,60612
12281,923,"34,106",103rd Street & Corliss,-87.60395426,41.70755393,60628
12174,924,103,103rd Street & Union,-87.6403021,41.70701549,60628
10101,925,67,69th Street & Aberdeen,-87.65167815,41.76879114,60621
12422,926,119,119th Street & Wallace,-87.63697086,41.67792394,60628
123,927,126,Jackson & Albany,-87.70378269,41.87740982,60612
3332,928,165,65th Street & Menard,-87.76632824,41.77438801,60638
9496,929,"24,87",87th Street & Union,-87.64109786,41.73618584,60620
9493,930,"24,87",87th Street & Holland,-87.63282486,41.73603953,60620
1772,931,155,Devon & Campbell,-87.69220295,41.9977727,60659
5747,932,80,Irving Park & Oriole,-87.81696527,41.95261483,60706
5975,933,"8A,108",127th Street & Halsted,-87.64133441,41.66330401,60628
5699,934,80,Irving Park & Albany,-87.70546239,41.95404469,60618
5270,935,100,100th Street & Hoxie,-87.56123993,41.71362804,60617
212,936,7,1336 W Harrison,-87.660199,41.874334999999995,60607
3274,937,63,63rd Street & Kildare,-87.729888,41.778698,60629
5749,938,80,Irving Park & Overhill,-87.81937016,41.95254668,60706
12368,939,112,111th Street & Campbell,-87.68348518,41.69183634,60655
13139,940,"205,206",Dodge & Simpson,-87.69897818,42.05543475,60201
6467,941,24,Wentworth & 51st Street,-87.63056606,41.80167092,60609
6482,942,24,LaSalle & 31st Street,-87.62998,41.838512,60616
10132,943,67,71st Street & Pulaski,-87.722117,41.764024,60629
14604,944,63,63rd Street & Lawndale,-87.71524272,41.778693700000005,60629
550,945,66,Chicago & Leavitt,-87.68206956,41.89574859,60622
15327,946,79,79th Street & Loomis,-87.65833999,41.75036193,60620
784,1638,65,Grand & Ashland,-87.66695867,41.8910639,60642
4797,1639,"92,146",Foster & Broadway,-87.65962002,41.97639787,60640
14814,1640,63,63rd Street & Kostner,-87.73287533,41.77860166,60629
4127,1641,73,Armitage & Keeler,-87.73134201,41.9171637,60639
3227,1642,63,63rd Street & State,-87.62505578,41.78015549,60637
3471,1643,95,95th Street & Ashland,-87.66319167,41.72130603,60643
9190,1644,15,51st Street & Wabash,-87.62405694,41.80210672,60615
10857,1645,"N5,75",75th Street & Yates,-87.56625726,41.75904507,60649
12628,1646,152,Addison & Forest Preserve Avenue,-87.82511976,41.94511567,60634
4717,1647,126,Jackson & Damen,-87.6768354,41.87755266,60612
10621,1648,55,55th Street & Homan,-87.70876054,41.79350033,60632
354,1649,12,Roosevelt & Sacramento,-87.70064598,41.86653975,60612
1201,1650,"136,147,151",Sheridan & Winthrop,-87.65834886,41.99827386,60660
6888,1651,21,Cermak & Kostner,-87.73431318,41.85157988,60623
7753,1652,39,Pershing & Indiana,-87.62185946,41.82384071,60653
65,1653,126,Jackson & Desplaines,-87.64375065,41.87792686,60661
2287,1654,"29,75",State & 76th Street,-87.62461,41.756267,60619
10184,1655,"N5,67",67th Street & Cottage Grove,-87.60594474,41.77307407,60637
4760,1656,92,Foster & Kostner,-87.73820464,41.97537454,60630
8920,1657,50,Damen & Chicago,-87.676953,41.895844,60622
6259,1658,"9,X9",Ashland & Cortland,-87.66769652,41.916024,60642
2722,1659,79,79th Street & Kilpatrick,-87.73921536,41.74908609,60652
6748,1660,18,16th Street & Spaulding,-87.708,41.858996999999995,60623
9429,1661,87,87th Street & Stony Island (Farside),-87.584817,41.736847,60617
12214,1662,106,103rd Street & Prairie,-87.61751556,41.70718436,60628
4040,1663,73,Armitage & Pulaski,-87.72675397,41.91710599,60639
1976,1664,70,Division & Long,-87.761037,41.902133,60651
11663,1665,85A,Touhy & Melvina,-87.78198879,42.01195291,60646
10174,1666,67,69th Street & Harvard,-87.63360386,41.76896271,60621
7134,1667,"15,28",Lake Park & 53rd Street,-87.58717247,41.79943053,60615
15124,1668,49,Western & Thomas,-87.68686555,41.90114314,60622
2349,1669,"29,62",State & 16th Street,-87.627155,41.860033,60616
9977,1670,52A,Kedzie & 100th Street,-87.70138652,41.71095198,60805
11442,1671,84,Peterson & Lawndale,-87.72124223,41.99016339999999,60646
14835,1672,18,16th Street & Kedzie,-87.70524093,41.85904245,60623
12141,1673,103,103rd Street & Leavitt,-87.67687975,41.7064003,60643
6684,1674,157,Taylor & Oakley,-87.683766,41.868938,60612
10948,1675,75,75th Street & Stony Island,-87.58629408,41.75869246,60649
7684,1676,35,35th Street & Michigan,-87.62342983,41.83097454,60653
263,1677,12,Roosevelt & 49th Avenue,-87.74732747,41.86578791,60804
2949,1678,115,115th Street & Wentworth,-87.62776623,41.68517096,60628
3650,1679,"8A,108",Halsted & 106th Street,-87.64254,41.70128,60628
111,1680,50,Damen & Jackson,-87.67635136,41.87740942,60612
2510,1681,4,Cottage Grove & 48th Street,-87.606432,41.807588,60615
5266,1682,"J14,100",Torrence & 103rd Street,-87.55956711,41.70830896,60617
920,1683,"N9,72",North Ave & Wells,-87.63487391,41.91104991,60610
17660,1684,30,South Chicago & Ingleside,-87.60228391,41.763365,60619
17661,1685,79,79th Street & Phillips,-87.5648516,41.75170818,60617
17662,1686,79,79th Street & Phillips,-87.56493797,41.75182406,60649
14979,1687,126,Jackson & Homan,-87.71064669,41.87720815,60624
6306,1688,60,26th Street & Keeler,-87.729519,41.844118,60623
9554,1689,81W,Gunnison & Meade,-87.78070268,41.96840978,60630
3394,1690,63,63rd Street & Spaulding,-87.705626,41.778863,60629
5427,1691,36,Broadway & Ardmore,-87.660102,41.987433,60660
15793,1692,9,Ashland & Polk,-87.66638578,41.87191455,60607
4589,1693,"47,54B",Cicero & 47th Street,-87.74296269,41.80750726,60632
1192,1694,"136,147,151",Sheridan & Glenlake,-87.655378,41.992523,60660
857,1695,72,North Ave & Taylor,-87.77820663,41.90919299,60302
4553,1696,55N,55th Street & Merrimac,-87.778257,41.792352,60638
2791,1697,79,79th Street & Kenwood,-87.59193547,41.75136668,60619
1337,1698,74,Fullerton & Elston,-87.67701282,41.92495463,60614
2944,1699,115,115th Street & Union,-87.64050686,41.68504356,60628
691,1700,65,Grand & Lamon,-87.74945624,41.91522393,60639
3356,1701,165,65th Street & Normandy,-87.7884533,41.77379243,60638
11031,1702,76,Diversey & Orchard,-87.64640881,41.9327154,60614
1736,1703,155,Devon & Hermitage,-87.67359255,41.99795405,60660
6717,1704,37,Orleans & Oak,-87.63724,41.900382,60610
8177,1705,47,47th Street & Federal,-87.62841751,41.80912257,60609
59,1706,126,Jackson & Racine,-87.65677916,41.87772931,60607
15484,1707,72,North Ave & Lamon,-87.74897629,41.90948436,60639
10524,1708,55,Garfield & Damen,-87.67398844,41.79350115,60636
12530,1709,152,Addison & Hoyne,-87.68105904,41.94676416,60618
6906,1710,"21,54B",4632 W Cermak,-87.74026414,41.8512216,60804
5596,1711,80,Irving Park & Panama,-87.82944012,41.95216029,60634
14697,1712,205,Golf Road & Knox,-87.74461047,42.05517909,60076
6762,1713,18,18th Street & Paulina (Pink Line),-87.668751,41.857704,60608
3755,1714,81,Lawrence & Campbell,-87.69148758,41.96850046,60625
14130,1715,94,Western Orange Line Station,-87.68402009,41.80514525,60609
6486,1716,24,Wentworth & 24th Street,-87.63184,41.848993,60616
6730,1717,37,Webster & Orchard,-87.64610589,41.92192576,60614
6464,1718,24,5400 S Wentworth,-87.63051,41.796246999999994,60609
14008,1719,108,95th Red Line Station,-87.62401009,41.7219476,60628
4445,1720,62,Archer & Throop,-87.65411999999999,41.84344,60608
6458,1721,24,Wentworth & 59th Street,-87.630263,41.7871,60621
17351,1722,79,79th Street & Wood,-87.66847722,41.75036322,60620
17356,1723,152,Addison & Narragansett,-87.78665859,41.9457237,60634
17357,1724,152,Addison & Harlem,-87.80731537,41.94532441,60634
17369,1725,111,111th Street & Halsted,-87.64273393,41.69240824,60643
12528,1726,152,Addison & Oakley,-87.6859281,41.94671243,60618
9418,1727,87,87th Street & Langley,-87.60733105,41.73654489,60619
9973,1728,52A,Kedzie & 104th Street,-87.70120406,41.70426478,60655
8919,1729,50,Damen & Huron,-87.67690400000001,41.894021,60622
2273,1730,29,State & 89th Street,-87.62397314,41.732608299999995,60619
3191,1731,52,California & Palmer (Blue Line),-87.69723804,41.92178352,60647
9373,1732,87,87th Street & Hamlin,-87.71603449,41.73483985,60805
2793,1733,79,79th Street & Anthony,-87.58860191,41.75138897,60619
520,1734,66,Chicago & Leclaire,-87.75325,41.894892,60644
1060,1735,151,Sheridan & Pine Grove,-87.64765892,41.95280766,60613
8954,1736,50,Damen & Cullom,-87.678832,41.959540000000004,60618
3668,1737,8A,Halsted & 89th Street,-87.6434,41.732432,60620
5077,1738,44,Racine & 53rd Street,-87.654832,41.797627,60609
11933,1739,"N5,95,100",1300 E 95th Street,-87.59239584,41.722156899999995,60619
9413,1740,87,87th Street & Prairie,-87.617908,41.73641,60619
11460,1741,84,Peterson & Wolcott,-87.67716800000001,41.990648,60625
190,1742,7,Harrison & Leavitt,-87.681449,41.873911,60612
6976,1743,"21,322",Cermak & East,-87.78866727,41.85051717,60402
5655,1744,80,Irving Park & Campbell,-87.69097127,41.95390633,60618
6715,1745,37,Orleans & Chestnut,-87.63714300000001,41.898064,60610
5967,1746,8,Halsted & Aldine,-87.64925,41.941718,60657
5904,1747,8,Halsted & 36th Street,-87.64599100000001,41.828798,60609
5894,1748,8,Halsted & 52nd Street,-87.64519818,41.79967503,60609
1560,1749,"1,4",Indiana & 34th Street,-87.621707,41.832975,60616
3295,1750,63W,63rd Street & Austin,-87.77131345,41.77794822,60638
12576,1751,152,Addison & Sacramento,-87.70282937,41.94671522,60618
12060,1752,96,Lunt & Sheridan,-87.6623874,42.0092214,60626
11057,1753,76,Diversey & Logan,-87.68413187,41.93228153,60647
7658,1754,35,35th Street & Archer,-87.67727,41.830425,60609
15208,1755,84,Peterson & Pulaski,-87.72903887,41.99025220000001,60646
131,1756,126,Jackson & Pulaski,-87.72579473,41.87713666,60624
11488,1757,84,Peterson & Rockwell,-87.69446819,41.99056614,60659
2655,1758,79,79th Street & Morgan,-87.64877595,41.75063759,60620
11042,1759,76,Diversey & Halsted,-87.64928959999999,41.93277853,60614
5269,1760,"J14,100",100th Street & Torrence,-87.56008809999999,41.71364314,60617
7412,1761,"N5,30,67",69th Street & Indiana,-87.62008693,41.76928496,60637
12180,1762,103,103rd Street & Vincennes,-87.6554676,41.70685942,60643
2982,1763,"N5,34,95,100,103,106,111,115,119",95th Street & Michigan,-87.62102781,41.72187674,60619
6628,1764,157,Taylor & Morgan,-87.651483,41.869554,60607
11351,1262,78,Montrose & Hoyne,-87.681512,41.961357,60618
13010,1263,59,61st Street & Langley,-87.60854339,41.78394928,60637
11449,1264,84,Peterson & Sacramento,-87.70436991,41.99034159,60659
10945,1265,75,75th Street & Kimbark,-87.59333997,41.75862883,60619
1991,1266,70,Division & Springfield,-87.723968,41.902625,60651
7046,1267,"6,26,67",67th Street & Oglesby,-87.56848576,41.773483500000005,60649
7727,1268,39,Pershing & Federal,-87.62840909,41.82361557,60609
12221,1269,106,103rd Street & St. Lawrence,-87.60899241,41.70732498,60628
11315,1270,78,Montrose & Major,-87.769802,41.960387,60634
10501,1271,55,55th Street & Karlov,-87.72547746,41.79312677,60632
12416,1272,119,119th Street & State,-87.62256039,41.67807892,60628
15160,1273,"N9,95,108,112",95th Street & Wentworth,-87.62917913,41.72175545,60628
16078,1274,126,Jackson & Leavitt,-87.68168,41.87767255,60612
8863,1275,50,Damen & Carroll,-87.676872,41.887756,60612
15452,1276,"22,97,201,205,206",Rogers & Hermitage,-87.67380984,42.01665359,60626
1715,1277,49B,Western & Berwyn,-87.68935634,41.97840842,60625
14144,1278,88,Harlem Blue Line Station,-87.80844642,41.98190162,60656
1449,1279,156,LaSalle & Burton,-87.63296283,41.9090037,60610
7592,1280,34,Michigan & 125th Place,-87.62000794,41.66624572,60628
5959,1281,8,Halsted & Altgeld,-87.648761,41.927263,60614
11768,1282,90,Harlem & Wilson,-87.80737212,41.96381113,60706
14971,1283,77,Lake Shore Drive & Barry,-87.63740502,41.93784693,60657
1827,1284,22,Clark & School/Aldine,-87.65225706,41.94184839,60657
5558,1285,56,Milwaukee & Logan Boulevard,-87.70556797,41.9280206,60647
1751,1286,155,Ashland & Farwell,-87.66978328,42.00664127,60626
2485,1287,4,Cottage Grove & Anthony,-87.60540122,41.76337678,60619
9076,1288,53,Pulaski & 18th Street,-87.72482099999999,41.856951,60623
7096,1289,71,Torrence & 108th Street,-87.55959748,41.69919796,60617
9024,1290,53,Pulaski & Iowa,-87.72624436,41.89731967,60651
4766,1291,92,3700 W Foster,-87.721242,41.975516999999996,60625
6438,1292,24,Vincennes & 79th Street,-87.634135,41.750623,60620
7477,1293,31,31st Street & Wallace,-87.64155368,41.83804971,60616
15482,1294,"2,10",Balbo & State,-87.62736567,41.87315064,60605
10189,1295,"N5,67",67th Street & University,-87.59848949,41.77314842,60637
11891,1296,93,Lawrence & Christiana,-87.71229625,41.96835312,60625
3497,1297,"N9,95",95th Street & Winston,-87.660823,41.721142,60643
11205,1298,82,32nd Street & Lawndale,-87.71681944,41.83512744,60623
3311,1299,63W,63rd Street & Long,-87.75696754,41.77808128,60638
7458,1300,35,35th Street & Washtenaw,-87.692488,41.830076,60632
10970,1301,76,Diversey & Normandy,-87.793133,41.930849,60707
10910,1302,75,74th Street & Wood,-87.668539,41.75931,60636
2962,1303,"4,115",11000 S Cottage Grove,-87.609317,41.694642,60628
10550,1304,55,Morgan Drive & Russell Drive,-87.61327329,41.79362601,60637
6938,1305,"21,60",Cermak & Laflin,-87.66378715,41.8523065,60608
14250,1306,205,Golf Road & Gross Point,-87.74023035,42.0551827,60076
9959,1307,52A,115th Street & St. Louis,-87.70797686,41.68408865,60655
12442,1308,119,119th Street & Marshfield,-87.66266599,41.67741681,60827
1635,1309,15,51st Street & Evans,-87.607908,41.802158,60615
12404,1310,112,111th Street & Hoyne,-87.674243,41.691829999999996,60643
11944,1311,"N5,95",93rd Street & Yates,-87.565782,41.72619,60617
6948,1312,21,Cermak & Union,-87.64485014,41.85259703,60616
151,1313,126,Jackson & Menard,-87.76974453,41.8771099,60644
834,1314,65,Grand & Meade,-87.77797234,41.92105671,60639
12278,1315,106,1100 E 103rd Street,-87.59593336,41.70767682,60628
233,1316,"7,126",3700 W Congress,-87.71790509,41.87452996,60624
4549,1317,"55A,55N",55th Street & Mayfield,-87.76968128,41.79263092,60638
4804,1318,"50,92",Foster & Wolcott,-87.67623628,41.97613067,60640
9361,1319,77,Belmont & Plainfield,-87.83354342,41.93766067,60634
15461,1320,81,Lawrence & Kenmore,-87.65654203,41.9691222,60640
15390,1321,73,Armitage & Rockwell,-87.69217103,41.91759221,60647
9460,1322,87,87th Street & Essex,-87.563413,41.737278,60617
11420,1323,78,Montrose & Narragansett,-87.78695946,41.96031082,60634
3288,1324,63W,63rd Street & Lorel,-87.75551379,41.77822634,60638
12610,1325,152,Addison & Mobile,-87.7837273,41.94575258,60634
1269,1326,74,Fullerton & Leclaire,-87.75351124,41.92421811,60639
13088,1327,59,59th Street & Springfield,-87.72039778,41.78604699,60629
12021,1328,"N5,95,100",1500 E 95th Street,-87.5878462,41.72237378,60619
14351,1329,206,Oakton & Florence,-87.69451976,42.02668154,60202
4926,1330,"80,135,148",Irving Park & Pine Grove,-87.647704,41.954531,60613
14778,1331,"24,87",87th Street & Racine,-87.65304585,41.73584412,60620
5638,1332,80,Irving Park & Pulaski,-87.72778702,41.9535518,60641
17656,1333,28,Stony Island & 68th Street,-87.58638862,41.77138715,60637
15126,1334,57,Lexington & Laramie,-87.75461207,41.87094982,60644
2533,1335,"4,35",35th Street & King Drive,-87.61675904,41.83104532,60653
409,1336,20,Madison & Pulaski,-87.72582347,41.88061422,60624
40,1337,126,Jackson & Leavitt,-87.68127094,41.87754396,60612
9399,1338,"24,87",87th Street & Vincennes,-87.64544503,41.73594682,60620
5664,1339,80,Irving Park & Ashland,-87.66925596,41.95418344,60613
6747,1340,18,16th Street & Homan,-87.710437,41.85897,60623
686,1341,65,Grand & Long,-87.7609681,41.91780507,60639
12480,1342,152,Addison & Sayre,-87.80076700000001,41.945321,60634
4042,1343,73,Armitage & Hamlin,-87.72173498,41.9171139,60647
3410,1344,63,63rd Street & Wood,-87.668824,41.779297,60636
17193,1345,155,Devon & Sacramento,-87.70432002,41.99741686,60659
17194,1346,155,Devon & Rockwell,-87.69457438,41.99759701,60659
17196,1347,155,Devon & Ridge,-87.67655852,41.99789479,60660
17143,1348,47,47th Street & Ellis,-87.60150348,41.80951359,60615
17251,1349,81,Lawrence & Rockwell,-87.69355012,41.96850746,60625
10908,1350,"75,94",74th Street & Damen,-87.67320142,41.75927254,60636
2895,1351,111A,111th Street & Cottage Grove,-87.60929577,41.69269946,60628
1880,1352,"22,24,36,62,151",Dearborn & Adams,-87.62924766,41.87956079,60603
5066,1353,44,Racine & 63rd Street,-87.65440799999999,41.779499,60636
297,1354,12,Roosevelt & Wood,-87.67146821,41.86664343,60608
15266,1355,63,63rd Street & Kostner,-87.73214155,41.77848535,60629
198,1356,"7, 755",Harrison & Racine,-87.657167,41.874190999999996,60607
14838,1357,7,Harrison & Kedzie,-87.70579199,41.87361269,60612
14852,1358,29,State & 26th Street,-87.62671398,41.84579551,60616
14816,1359,"52,52A",Kedzie & 63rd Street,-87.70304976,41.77913982,60629
3642,1360,"8A,108",Halsted & 114th Street,-87.642092,41.68677,60628
3434,1361,63,63rd Street & Michigan,-87.62227473,41.77997097,60637
11030,1362,76,Diversey & Halsted,-87.64875095,41.93266291,60614
15210,1363,63,63rd Street & Western,-87.68316127,41.77908454,60636
14551,1364,80,Irving Park & California,-87.69802532,41.95387539,60618
3826,1365,57,Laramie & Bloomingdale,-87.755838,41.913231,60639
1036,1366,"136,147,151",Sheridan & Ardmore,-87.65537893,41.987458700000005,60660
7188,1367,28,Stony Island & 73rd Street,-87.58634125,41.76250534,60649
4607,1368,"47,54B,N62",Cicero & Archer,-87.74305748,41.79829161,60638
15347,1369,"8,132",Halsted & Chicago,-87.64784752,41.89609584,60642
15216,1370,56,Milwaukee & Central Park,-87.71773277,41.93546421,60618
9029,1371,53,Pulaski & Ferdinand,-87.72601487,41.88978544,60624
2405,1372,29,State & 41st Street,-87.62649871,41.82023524,60609
7804,1373,"39,62",Archer & Pershing/Rockwell,-87.68943887,41.82307734,60632
11779,1374,90,Harlem & Addison,-87.80710434,41.94541159,60634
11783,1375,90,Harlem & Belmont,-87.8068454,41.93816697,60634
14768,1376,29,State & Pershing,-87.62656454,41.82352538,60609
1200,1377,"136,147,151",Sheridan & Kenmore,-87.65693556,41.99833161,60660
12207,1378,103,103rd Street & Central Park,-87.71092642,41.70616319,60805
15181,1379,35,35th Street & Western,-87.68488707,41.83035628,60608
6884,1380,21,Cermak & Hamlin,-87.71976342,41.85168191,60623
12026,1381,"N5,95",93rd Street & Woodlawn,-87.59513017,41.72590281,60619
7994,1382,43,43rd Street & Ellis,-87.60166414,41.81693554,60653
10586,1383,55,Garfield & State,-87.6260843,41.794699,60609
80,1384,"1,7,28,126,130,134,135,136,151,156",Adams & Wells,-87.634024,41.879426,60606
14205,1385,12,Taylor & Damen,-87.67683282,41.86916072,60612
7151,1386,47,47th Street & Vincennes,-87.61371686,41.80949998,60653
2093,1387,70,Division & Lavergne,-87.75075855,41.90235842,60651
218,1388,7,Harrison & Oakley,-87.68358895,41.87398752,60612
3248,1389,63,63rd Street & Wood,-87.66888622,41.77946557,60636
1823,1390,22,Clark & Addison,-87.65674987,41.94735395,60613
1873,1391,24,Clark & Harrison,-87.63074399999999,41.874639,60605
1848,1392,"22,36",Clark & Schiller,-87.631665,41.907937,60610
5229,1393,"J14,15",Jeffery & 87th Street,-87.57580477,41.73687335,60617
